ID,line,path,eva_nr,category,station,state,city,zip,long,lat,arrival_plan,departure_plan,arrival_change,departure_change,arrival_delay_m,departure_delay_m,info,arrival_delay_check,departure_delay_check
1846221551217890919-2407102006-11,2,Aumühle|Wohltorf|Reinbek|Hamburg-Bergedorf|Hamburg-Nettelnburg|Hamburg-Allermöhe|Hamburg Mittlerer Landweg|Hamburg Billwerder-Moorfleet|Hamburg-Tiefstack|Hamburg-Rothenburgsort,8000908,3,Berliner Tor,Hamburg,Hamburg,20099,10.02463,53.55287,2024-07-10 20:34:00,2024-07-10 20:35:00,,,0,0,,on_time,on_time
-7250951253539911335-2407141118-1,2,,8005424,3,Schorndorf,Baden-Württemberg,Schorndorf,73614,9.52631,48.80715,,2024-07-14 11:18:00,,2024-07-14 11:18:00,0,0,Information,on_time,on_time
1959666943967644709-2407122159-5,34,Dortmund Hbf|Witten Hbf|Letmathe|Altena(Westf),8006339,5,Werdohl,Nordrhein-Westfalen,Werdohl,58791,7.757544,51.259485,2024-07-12 22:52:00,2024-07-12 22:52:00,2024-07-12 22:55:00,2024-07-12 22:55:00,3,3,,on_time,on_time
7351530836130825482-2407080433-17,2,Niedernhausen(Taunus)|Niederjosbach|Eppstein-Bremthal|Eppstein|Lorsbach|Hofheim(Taunus)|Kriftel|Frankfurt-Zeilsheim|Frankfurt-Höchst Farbwerke|Frankfurt-Höchst|Frankfurt-Nied|Frankfurt-Griesheim|Frankfurt Hbf (tief)|Frankfurt(M)Taunusanlage|Frankfurt(M)Hauptwache|Frankfurt(M)Konstablerwache,8002058,3,Frankfurt (Main) Ostendstraße,Hessen,Frankfurt am Main,60314,8.696987,50.112562,2024-07-08 05:16:00,2024-07-08 05:16:00,2024-07-08 05:16:00,2024-07-08 05:16:00,0,0,Information,on_time,on_time
4997702765753964129-2407141421-3,4,München-Trudering|München-Berg am Laim,8004134,4,München Leuchtenbergring,Bayern,München,81677,11.615986,48.13425,2024-07-14 14:27:00,2024-07-14 14:27:00,2024-07-14 14:27:00,2024-07-14 14:28:00,0,1,,on_time,on_time
4236289435269760247-2407142328-8,1,Hannover Hbf|Hannover-Nordstadt|Hannover-Leinhausen|Letter|Seelze|Dedensen-Gümmer|Wunstorf,8002634,4,Haste (Han),Niedersachsen,Haste,31559,9.389097,52.379656,2024-07-14 23:52:00,2024-07-15 00:06:00,2024-07-14 23:53:00,2024-07-15 00:06:00,1,0,,on_time,on_time
-3024514573937466131-2407132047-1,17c,,8000096,1,Stuttgart Hbf,Baden-Württemberg,Stuttgart,70173,9.181635,48.784084,,2024-07-13 20:47:00,,2024-07-13 20:47:00,0,0,,on_time,on_time
-5921742979997781539-2407090808-10,3,Frankfurt(Main)Hbf|Frankfurt-Niederrad|Frankfurt(M) Flughafen Regionalbf|Rüsselsheim|Mainz-Bischofsheim|Mainz Römisches Theater|Mainz Hbf|Ingelheim|Bad Kreuznach,8000726,4,Bad Münster am Stein,Rheinland-Pfalz,Bad Münster am Stein,55583,7.846989,49.813426,2024-07-09 09:26:00,2024-07-09 09:27:00,2024-07-09 09:26:00,2024-07-09 09:27:00,0,0,,on_time,on_time
4384390371839145436-2407131848-5,2,Dresden Flughafen|Dresden Grenzstraße|Dresden-Klotzsche|Dresden Industriegelände,8010089,2,Dresden-Neustadt,Sachsen,Dresden,1097,13.740701,51.065899,2024-07-13 19:00:00,2024-07-13 19:01:00,2024-07-13 19:01:00,2024-07-13 19:02:00,1,1,,on_time,on_time
1700275294058871327-2407111505-2,RE98,Kassel Hbf,8003200,2,Kassel-Wilhelmshöhe,Hessen,Kassel,34131,9.44711566,51.3125585,2024-07-11 15:09:00,2024-07-11 15:10:00,2024-07-11 15:09:00,2024-07-11 15:10:00,0,0,,on_time,on_time
4863702265343887721-2407101411-19,1,München Flughafen Terminal|München Flughafen Besucherpark|Neufahrn(b Freising)|Eching|Lohhof|Unterschleißheim|Oberschleißheim|München-Feldmoching|München-Fasanerie|München-Moosach|München-Laim|München Hirschgarten|München Donnersbergerbrücke|München Hackerbrücke|München Hbf (tief)|München Karlsplatz|München Marienplatz|München Isartor,8004136,3,München Rosenheimer Platz,Bayern,München,81669,11.593049,48.129168,2024-07-10 15:02:00,2024-07-10 15:02:00,2024-07-10 15:07:00,2024-07-10 15:07:00,5,5,,on_time,on_time
-4625998139013990883-2407081659-3,RE14,Essen Hbf|Essen West,8001902,5,Essen-Borbeck,Nordrhein-Westfalen,Essen,45355,6.948461,51.473103,2024-07-08 17:06:00,2024-07-08 17:07:00,2024-07-08 17:08:00,2024-07-08 17:09:00,2,2,,on_time,on_time
233878072408017084-2407092141-21,7,Ahrensfelde (S)|Berlin Mehrower Allee|Berlin Raoul-Wallenberg-Str.|Berlin-Marzahn|Berlin Poelchaustr.|Berlin Springpfuhl|Berlin-Friedrichsfelde Ost|Berlin-Lichtenberg (S)|Berlin Nöldnerplatz|Berlin Ostkreuz (S)|Berlin Warschauer Straße|Berlin Ostbahnhof (S)|Berlin Jannowitzbrücke|Berlin Alexanderplatz (S)|Berlin Hackescher Markt|Berlin Friedrichstraße (S)|Berlin Hbf (S-Bahn)|Berlin Bellevue|Berlin-Tiergarten|Berlin Zoologischer Garten (S),8089037,4,Savignyplatz,Berlin,Berlin,10623,13.319271,52.505093,2024-07-09 22:25:00,2024-07-09 22:25:00,2024-07-09 22:28:00,2024-07-09 22:29:00,3,4,,on_time,on_time
52555483616296575-2407142144-8,8,München Flughafen Terminal|München Flughafen Besucherpark|Hallbergmoos|Ismaning|Unterföhring|München-Johanneskirchen|München-Englschalking,8004143,5,München-Daglfing,Bayern,München,81929,11.64933,48.149622,2024-07-14 22:08:00,2024-07-14 22:09:00,2024-07-14 22:10:00,2024-07-14 22:10:00,2,1,,on_time,on_time
-568011126037798616-2407141241-19,7,Potsdam Hbf (S)|Potsdam-Babelsberg|Potsdam Griebnitzsee (S)|Berlin-Wannsee (S)|Berlin-Nikolassee|Berlin-Grunewald|Berlin Westkreuz|Berlin Charlottenburg (S)|Berlin Savignyplatz|Berlin Zoologischer Garten (S)|Berlin-Tiergarten|Berlin Bellevue|Berlin Hbf (S-Bahn)|Berlin Friedrichstraße (S)|Berlin Hackescher Markt|Berlin Alexanderplatz (S)|Berlin Jannowitzbrücke|Berlin Ostbahnhof (S),8089045,4,Warschauer Straße,Berlin,Berlin,10243,13.451646,52.505976,2024-07-14 13:31:00,2024-07-14 13:32:00,2024-07-14 13:31:00,2024-07-14 13:32:00,0,0,,on_time,on_time
1287744174963220834-2407100854-14,8,Wildau|Zeuthen|Eichwalde|Berlin-Grünau|Berlin-Adlershof|Berlin-Johannisthal|Berlin-Schöneweide (S)|Berlin Baumschulenweg|Berlin Plänterwald|Berlin Treptower Park|Berlin Ostkreuz (S)|Berlin Frankfurter Allee|Berlin Storkower Str,8089020,4,Landsberger Allee,Berlin,Berlin,10407,13.454567,52.529593,2024-07-10 09:34:00,2024-07-10 09:35:00,2024-07-10 09:34:00,2024-07-10 09:35:00,0,0,,on_time,on_time
-995933875089874422-2407090905-4,S2,Freiburg(Breisgau) Hbf|Freiburg-Herdern|Freiburg-Zähringen,8001415,4,Denzlingen,Baden-Württemberg,Denzlingen,79211,7.881434,48.068625,2024-07-09 09:13:00,2024-07-09 09:14:00,2024-07-09 09:13:00,2024-07-09 09:14:00,0,0,,on_time,on_time
-4909772396699886147-2407080422-20,6,Ebersberg(Oberbay)|Grafing Stadt|Grafing Bahnhof|Kirchseeon|Eglharting|Zorneding|Baldham|Vaterstetten|Haar|Gronsdorf|München-Trudering|München-Berg am Laim|München Leuchtenbergring|München Ost|München Rosenheimer Platz|München Isartor|München Marienplatz|München Karlsplatz|München Hbf (tief),8004129,3,München-Hackerbrücke,Bayern,München,80335,11.548572,48.141969,2024-07-08 05:11:00,2024-07-08 05:11:00,2024-07-08 05:13:00,2024-07-08 05:14:00,2,3,Bauarbeiten,on_time,on_time
-2982755537548553627-2407120551-1,4,,8000262,1,München Ost,Bayern,München,81667,11.604971,48.12744,,2024-07-12 05:51:00,,,0,0,,on_time,on_time
6581884536940570270-2407081351-2,1,Dortmund Hbf,8000081,3,Dortmund-Dorstfeld,Nordrhein-Westfalen,Dortmund,44149,7.424864,51.509376,2024-07-08 13:53:00,2024-07-08 13:56:00,,,0,0,Information. (Quelle: zuginfo.nrw),on_time,on_time
8581159004980707297-2407140730-1,54,,8000105,1,Frankfurt (Main) Hbf,Hessen,Frankfurt am Main,60329,8.663789,50.107145,,2024-07-14 07:30:00,,2024-07-14 07:30:00,0,0,Bauarbeiten,on_time,on_time
2100670324740515717-2407140010-4,RB31,Duisburg Hbf|Rheinhausen|Rumeln,8005910,5,Trompet,Nordrhein-Westfalen,Duisburg,47228,6.669107,51.413489,2024-07-14 00:22:00,2024-07-14 00:23:00,2024-07-14 00:22:00,2024-07-14 00:23:00,0,0,Bauarbeiten. (Quelle: zuginfo.nrw),on_time,on_time
-8366512532705121810-2407141218-14,42,Berlin-Tempelhof|Berlin Hermannstraße|Berlin-Neukölln|Berlin Sonnenallee|Berlin Treptower Park|Berlin Ostkreuz (S)|Berlin Frankfurter Allee|Berlin Storkower Str|Berlin Landsberger Allee|Berlin Greifswalder Str|Berlin Prenzlauer Allee|Berlin Schönhauser Allee|Berlin Gesundbrunnen(S),8089131,4,Wedding,Berlin,Berlin,13347,13.36817,52.543251,2024-07-14 12:48:00,2024-07-14 12:48:00,2024-07-14 12:48:00,2024-07-14 12:48:00,0,0,,on_time,on_time
-4170144647087673867-2407112153-29,11,Bergisch Gladbach|Duckterath|Köln-Dellbrück|Köln-Holweide|Köln-Mülheim|Köln-Buchforst|Köln Messe/Deutz|Köln Hbf|Köln Hansaring|Köln-Nippes|Köln Geldernstr./Parkgürtel|Köln-Longerich|Köln Volkhovener Weg|Köln-Chorweiler|Köln-Chorweiler Nord|Köln-Blumenberg|Köln-Worringen|Dormagen Chempark|Dormagen|Nievenheim|Neuss Allerheiligen|Norf|Neuss Süd|Neuss Hbf|Neuss Am Kaiser|Neuss Rheinparkcenter|Düsseldorf-Hamm|Düsseldorf Völklinger Str.,8001585,4,Düsseldorf-Bilk,Nordrhein-Westfalen,Düsseldorf,40217,6.775578,51.207994,2024-07-11 23:16:00,2024-07-11 23:17:00,2024-07-11 23:16:00,2024-07-11 23:17:00,0,0,Information. (Quelle: zuginfo.nrw),on_time,on_time
1791660472015178827-2407080655-27,1,Berlin-Frohnau|Berlin-Hermsdorf|Berlin-Waidmannslust|Berlin-Wittenau (Wilhelmsruher Damm)|Berlin-Wilhelmsruh|Berlin-Schönholz|Berlin Wollankstraße|Berlin Bornholmer Str.|Berlin Gesundbrunnen(S)|Berlin Humboldthain|Berlin Nordbahnhof|Berlin Oranienburger Straße|Berlin Friedrichstraße (S)|Berlin Brandenburger Tor|Berlin Potsdamer Platz (S)|Berlin Anhalter Bf|Berlin Yorckstr.(S1)|Berlin Julius-Leber-Brücke|Berlin-Schöneberg|Berlin-Friedenau|Berlin Feuerbachstr.|Berlin Rathaus Steglitz|Berlin Botanischer Garten|Berlin-Lichterfelde West|Berlin Sundgauer Str|Berlin-Zehlendorf,8089023,4,Mexikoplatz,Berlin,Berlin,14163,13.232712,52.436937,2024-07-08 07:55:00,2024-07-08 07:55:00,2024-07-08 07:55:00,2024-07-08 07:55:00,0,0,Störung,on_time,on_time
-2823655757709007819-2407082017-3,3,Oberhausen Hbf|Mülheim(Ruhr)Styrum,8004122,5,Mülheim (Ruhr) West,Nordrhein-Westfalen,Mülheim an der Ruhr,45473,6.871404,51.439654,2024-07-08 20:23:00,2024-07-08 20:24:00,2024-07-08 20:25:00,2024-07-08 20:25:00,2,1,Information. (Quelle: zuginfo.nrw),on_time,on_time
-3296934746685363362-2407141232-18,2,Petershausen(Obb)|Vierkirchen-Esterhofen|Röhrmoos|Hebertshausen|Dachau Bahnhof|München-Karlsfeld|München-Allach|München-Untermenzing|München-Obermenzing|München-Laim|München Hirschgarten|München Donnersbergerbrücke|München Hackerbrücke|München Hbf (tief)|München Karlsplatz|München Marienplatz|München Isartor,8004136,3,München Rosenheimer Platz,Bayern,München,81669,11.593049,48.129168,2024-07-14 13:16:00,2024-07-14 13:16:00,2024-07-14 13:18:00,2024-07-14 13:19:00,2,3,Bauarbeiten,on_time,on_time
1297549553344004528-2407102358-12,1,Rödermark-Ober Roden|Rodgau-Rollwald|Rodgau-Nieder Roden|Rodgau-Dudenhofen|Rodgau-Jügesheim|Rodgau-Hainhausen|Rodgau-Weiskirchen|Obertshausen(Kr Of)|Offenbach-Waldhof|Offenbach-Bieber|Offenbach(Main)Ost,8070090,4,Offenbach Marktplatz,Hessen,Offenbach (Main),63065,8.763633,50.105855,2024-07-11 00:25:00,2024-07-11 00:26:00,2024-07-11 00:25:00,2024-07-11 00:26:00,0,0,,on_time,on_time
-3711201485074617606-2407081328-18,8,Offenbach(Main)Ost|Offenbach(Main) Marktplatz|Offenbach(Main) Ledermuseum|Offenbach(Main) Kaiserlei|Frankfurt(M)Mühlberg|Frankfurt(M)Ostendstraße|Frankfurt(M)Konstablerwache|Frankfurt(M)Hauptwache|Frankfurt(M)Taunusanlage|Frankfurt Hbf (tief)|Frankfurt-Niederrad|Frankfurt am Main - Stadion|Frankfurt(Main)-Gateway Gardens|Frankfurt(M) Flughafen Regionalbf|Kelsterbach|Raunheim|Rüsselsheim,8005221,4,Rüsselsheim Opelwerk,Hessen,Rüsselsheim,65428,8.400373,49.988,2024-07-08 14:14:00,2024-07-08 14:14:00,2024-07-08 14:17:00,2024-07-08 14:18:00,3,4,,on_time,on_time
368745574417306295-2407120717-3,1,Rostock Hbf|Rostock Parkstraße,8012805,4,Rostock Holbeinplatz,Mecklenburg-Vorpommern,Rostock,18057,12.099466,54.0933,2024-07-12 07:22:00,2024-07-12 07:23:00,2024-07-12 07:22:00,2024-07-12 07:23:00,0,0,,on_time,on_time
3678449233558365467-2407131908-6,RE18,Plattling|Straßkirchen|Straubing|Radldorf(Niederbay)|Sünching,8004592,5,Obertraubling,Bayern,Obertraubling,93083,12.169996,48.967537,2024-07-13 19:43:00,2024-07-13 19:43:00,2024-07-13 19:43:00,2024-07-13 19:43:00,0,0,,on_time,on_time
-4356853165457193863-2407141908-8,2,Frankfurt(Main)Hbf|Frankfurt-Niederrad|Frankfurt(M) Flughafen Regionalbf|Rüsselsheim|Mainz-Bischofsheim|Mainz Römisches Theater|Mainz Hbf,8003075,4,Ingelheim,Rheinland-Pfalz,Ingelheim,55218,8.053716,49.976277,2024-07-14 20:01:00,2024-07-14 20:02:00,2024-07-14 20:01:00,2024-07-14 20:02:00,0,0,,on_time,on_time
2184884885477991273-2407131324-18,12,Köln-Ehrenfeld|Köln Hansaring|Köln Hbf|Köln Messe/Deutz|Köln Trimbornstr|Köln Airport-Businesspark|Köln Steinstraße|Porz(Rhein)|Porz-Wahn|Spich|Troisdorf|Siegburg/Bonn|Hennef(Sieg)|Hennef im Siegbogen|Blankenberg(Sieg)|Merten(Sieg)|Eitorf,8002768,5,Herchen,Nordrhein-Westfalen,Windeck,51570,7.521349,50.771269,2024-07-13 14:22:00,2024-07-13 14:23:00,2024-07-13 14:22:00,2024-07-13 14:23:00,0,0,,on_time,on_time
8135759686665338824-2407121622-6,5,Stuttgart Schwabstr.|Stuttgart Feuersee|Stuttgart Stadtmitte|Stuttgart Hbf (tief)|Stuttgart Nord,8005770,3,Stuttgart-Feuerbach,Baden-Württemberg,Stuttgart-Feuerbach,70469,9.169382,48.813673,2024-07-12 16:33:00,2024-07-12 16:34:00,2024-07-12 16:33:00,2024-07-12 16:34:00,0,0,Information,on_time,on_time
-2375583392739477289-2407100144-14,6,Tutzing|Feldafing|Possenhofen|Starnberg|Starnberg Nord|Gauting|Stockdorf|Planegg|Gräfelfing|Lochham|München-Westkreuz|München-Pasing|München-Laim,8004179,3,München-Hirschgarten,Bayern,München,80639,11.519245,48.14354,2024-07-10 02:21:00,2024-07-10 02:22:00,2024-07-10 02:25:00,2024-07-10 02:25:00,4,3,Bauarbeiten,on_time,on_time
-8015216001289436545-2407122145-31,5,"Wörth(Rhein) Badepark|Wörth(Rhein) Badallee|Wörth(Rhein) Rathaus|Wörth(Rhein) Bürgerpark|Wörth(Rhein) Bienwaldhalle|Wörth(Rhein) Alte Bahnmeisterei|Wörth(Rhein)|Maximiliansau West|Maximiliansau Eisenbahnstraße|Maxau|Karlsruhe-Kniel. Rheinbergstr.|Knielingen Eggensteiner Straße, Karlsruhe|Knielingen Herweghstraße, Karlsruhe|Knielingen Siemens, Karlsruhe|Mühlburg West, Karlsruhe|Starckstraße, Karlsruhe|Lameyplatz, Karlsruhe|Karlsruhe Entenfang|Philippstraße, Karlsruhe|Händelstraße, Karlsruhe|Yorckstraße, Karlsruhe|Mühlburger Tor, Karlsruhe|Europaplatz/Postgalerie (U), Karlsruhe|Marktplatz (Kaiserstraße U), Karlsruhe|Kronenplatz (U), Karlsruhe|Durlacher Tor/KIT-Campus Süd (U), Karlsruhe|Gottesauer Platz/BGV, Karlsruhe|Tullastraße/Alter Schlachthof, Karlsruhe|Weinweg, Karlsruhe|Durlach Untermühlstraße, Karlsruhe",8003184,3,Karlsruhe-Durlach,Baden-Württemberg,Karlsruhe,76227,8.462822,49.002328,2024-07-12 22:31:00,2024-07-12 22:32:00,,,0,0,,on_time,on_time
8281309014929570281-2407091139-15,RB35,Gelsenkirchen Hbf|Essen-Zollverein Nord|Essen-Altenessen|Essen-Bergeborbeck|Essen-Dellwig|Oberhausen Hbf|Duisburg Hbf|Duisburg-Hochfeld Süd|Rheinhausen Ost|Rheinhausen|Krefeld-Hohenbudberg Chempark|Krefeld-Uerdingen|Krefeld-Linn|Krefeld-Oppum,8000211,3,Krefeld Hbf,Nordrhein-Westfalen,Krefeld,47798,6.569885,51.325717,2024-07-09 12:29:00,2024-07-09 12:30:00,2024-07-09 12:29:00,2024-07-09 12:30:00,0,0,,on_time,on_time
-8922528157550016552-2407121333-1,RB20,,8000348,4,Stolberg (Rheinl) Hbf,Nordrhein-Westfalen,Stolberg (Rheinl),52222,6.217478,50.79448,,2024-07-12 13:33:00,,,0,0,,on_time,on_time
-9040215885850993609-2407080833-12,1,Hamburg Airport|Hamburg-Ohlsdorf|Hamburg Rübenkamp|Hamburg Alte Wöhr|Hamburg-Barmbek|Hamburg Friedrichsberg|Hamburg Wandsbeker Chaussee|Hamburg Hasselbrook|Hamburg Landwehr|Hamburg Berliner Tor|Hamburg Hbf (S-Bahn),8003137,4,Jungfernstieg,Hamburg,Hamburg,20095,9.993883,53.552194,2024-07-08 09:00:00,2024-07-08 09:01:00,2024-07-08 09:01:00,2024-07-08 09:02:00,1,1,,on_time,on_time
-5039920980592002264-2407141337-23,1,Düsseldorf Hbf|Düsseldorf Wehrhahn|Düsseldorf-Zoo|Düsseldorf-Derendorf|Düsseldorf-Unterrath|Düsseldorf Flughafen|Angermund|Duisburg-Rahm|Duisburg-Großenbaum|Duisburg-Buchholz|Duisburg-Schlenk|Duisburg Hbf|Mülheim(Ruhr)Styrum|Mülheim(Ruhr)Hbf|Essen-Frohnhausen|Essen West|Essen Hbf|Essen-Steele|Essen-Steele Ost|Essen-Eiberg|Wattenscheid-Höntrop|Bochum-Ehrenfeld,8000041,2,Bochum Hbf,Nordrhein-Westfalen,Bochum,44787,7.223275,51.478609,2024-07-14 14:43:00,2024-07-14 14:44:00,2024-07-14 14:43:00,2024-07-14 14:44:00,0,0,Information. (Quelle: zuginfo.nrw),on_time,on_time
-90993196457016814-2407121828-24,41,Berlin Beusselstraße|Berlin Westhafen|Berlin-Wedding|Berlin Gesundbrunnen(S)|Berlin Schönhauser Allee|Berlin Prenzlauer Allee|Berlin Greifswalder Str|Berlin Landsberger Allee|Berlin Storkower Str|Berlin Frankfurter Allee|Berlin Ostkreuz (S)|Berlin Treptower Park|Berlin Sonnenallee|Berlin-Neukölln|Berlin Hermannstraße|Berlin-Tempelhof|Berlin Südkreuz (S)|Berlin-Schöneberg|Berlin Innsbrucker Platz|Berlin Bundesplatz|Berlin Heidelberger Platz|Berlin Hohenzollerndamm|Berlin-Halensee,8089047,3,Berlin-Westkreuz,Berlin,Berlin,14057,13.283966,52.500737,2024-07-12 19:18:00,2024-07-12 19:19:00,2024-07-12 19:18:00,2024-07-12 19:19:00,0,0,,on_time,on_time
-406941045342705729-2407122251-6,1,München Leuchtenbergring|München Ost|München Rosenheimer Platz|München Isartor|München Marienplatz,8004132,3,München Karlsplatz,Bayern,München,80331,11.565619,48.139452,2024-07-12 22:59:00,2024-07-12 23:00:00,2024-07-12 23:03:00,2024-07-12 23:03:00,4,3,,on_time,on_time
4368654727349448816-2407091635-1,50,,8000080,1,Dortmund Hbf,Nordrhein-Westfalen,Dortmund,44137,7.45929,51.517896,,2024-07-09 16:35:00,,2024-07-09 16:35:00,0,0,,on_time,on_time
-5595402329013696147-2407141139-21,16,Nürnberg Hbf|Schwabach|Roth|Unterheckenhofen|Georgensgmünd|Mühlstetten|Pleinfeld|Ellingen(Bay)|Weißenburg(Bay)|Treuchtlingen|Pappenheim|Solnhofen|Dollnstein|Eichstätt Bahnhof|Adelschlag|Tauberfeld|Eitensheim|Gaimersheim|Ingolstadt Audi|Ingolstadt Nord,8000183,2,Ingolstadt Hbf,Bayern,Ingolstadt,85051,11.437337,48.744541,2024-07-14 13:27:00,2024-07-14 13:33:00,2024-07-14 13:27:00,2024-07-14 13:34:00,0,1,,on_time,on_time
-2594876433637610792-2407082335-5,8,Dresden Hbf|Dresden Mitte|Dresden-Neustadt|Dresden Industriegelände,8010088,4,Dresden-Klotzsche,Sachsen,Dresden,1109,13.78911,51.114667,2024-07-08 23:49:00,2024-07-08 23:49:00,,,0,0,Bauarbeiten,on_time,on_time
-7787995025224081314-2407082312-2,68,Frankfurt(Main)Hbf,8003523,4,Langen (Hess),Hessen,Langen,63225,8.656787,49.993612,2024-07-08 23:21:00,2024-07-08 23:21:00,2024-07-08 23:22:00,2024-07-08 23:22:00,1,1,Information,on_time,on_time
-3237525925983310715-2407081712-1,S7,,8000087,2,Solingen Hbf,Nordrhein-Westfalen,Solingen-Ohligs,42697,7.004187,51.160766,,2024-07-08 17:12:00,,2024-07-08 17:13:00,0,1,,on_time,on_time
-605476343020607591-2407102105-2,12,Tübingen Hbf,8000314,3,Reutlingen Hbf,Baden-Württemberg,Reutlingen,72764,9.209116,48.496079,2024-07-10 21:15:00,2024-07-10 21:16:00,2024-07-10 21:16:00,2024-07-10 21:17:00,1,1,Störung,on_time,on_time
7275398232650949655-2407081428-8,5,Frankfurt(Main)Süd|Frankfurt(M)Lokalbahnhof|Frankfurt(M)Ostendstraße|Frankfurt(M)Konstablerwache|Frankfurt(M)Hauptwache|Frankfurt(M)Taunusanlage|Frankfurt Hbf (tief),8006690,4,Frankfurt (Main) Galluswarte,Hessen,Frankfurt am Main,60326,8.64472,50.10403,2024-07-08 14:41:00,2024-07-08 14:42:00,2024-07-08 14:41:00,2024-07-08 14:42:00,0,0,,on_time,on_time
-7121805910800756297-2407111024-3,6,Tutzing|Feldafing,8004874,4,Possenhofen,Bayern,Pöcking,82343,11.306475,47.96196,2024-07-11 10:30:00,2024-07-11 10:30:00,2024-07-11 10:34:00,2024-07-11 10:34:00,4,4,Bauarbeiten,on_time,on_time
-6779962338982159023-2407080813-24,41,Berlin Beusselstraße|Berlin Westhafen|Berlin-Wedding|Berlin Gesundbrunnen(S)|Berlin Schönhauser Allee|Berlin Prenzlauer Allee|Berlin Greifswalder Str|Berlin Landsberger Allee|Berlin Storkower Str|Berlin Frankfurter Allee|Berlin Ostkreuz (S)|Berlin Treptower Park|Berlin Sonnenallee|Berlin-Neukölln|Berlin Hermannstraße|Berlin-Tempelhof|Berlin Südkreuz (S)|Berlin-Schöneberg|Berlin Innsbrucker Platz|Berlin Bundesplatz|Berlin Heidelberger Platz|Berlin Hohenzollerndamm|Berlin-Halensee,8089047,3,Berlin-Westkreuz,Berlin,Berlin,14057,13.283966,52.500737,2024-07-08 09:03:00,2024-07-08 09:04:00,2024-07-08 09:03:00,2024-07-08 09:04:00,0,0,,on_time,on_time
-5922757085214240081-2407101433-6,42,Berlin Beusselstraße|Berlin Jungfernheide (S)|Berlin Westend|Berlin Messe Nord/ICC (Witzleben)|Berlin Westkreuz,8089109,4,Berlin-Halensee,Berlin,Berlin,10711,13.290326,52.496254,2024-07-10 14:43:00,2024-07-10 14:44:00,,,0,0,,on_time,on_time
940994217859310436-2407080445-23,8,Herrsching|Seefeld-Hechendorf|Steinebach|Weßling(Oberbay)|Neugilching|Gilching-Argelsried|Geisenbrunn|Germering-Unterpfaffenhofen|Harthaus|München-Freiham|München-Neuaubing|München-Westkreuz|München-Pasing|München-Laim|München Hirschgarten|München Donnersbergerbrücke|München Hackerbrücke|München Hbf (tief)|München Karlsplatz|München Marienplatz|München Isartor|München Rosenheimer Platz,8000262,1,München Ost,Bayern,München,81667,11.604971,48.12744,2024-07-08 05:42:00,2024-07-08 05:42:00,2024-07-08 05:44:00,2024-07-08 05:45:00,2,3,,on_time,on_time
4871372025112505098-2407091523-15,1,Hamburg Airport|Hamburg-Ohlsdorf|Hamburg Rübenkamp|Hamburg Alte Wöhr|Hamburg-Barmbek|Hamburg Friedrichsberg|Hamburg Wandsbeker Chaussee|Hamburg Hasselbrook|Hamburg Landwehr|Hamburg Berliner Tor|Hamburg Hbf (S-Bahn)|Hamburg Jungfernstieg|Hamburg Stadthausbrücke|Hamburg Landungsbrücken,8006705,4,Reeperbahn,Hamburg,Hamburg,20359,9.957668,53.549668,2024-07-09 15:56:00,2024-07-09 15:57:00,,,0,0,,on_time,on_time
-6793336855512255564-2407040526-5,2,Hamburg-Bergedorf|Hamburg-Nettelnburg|Hamburg-Allermöhe|Hamburg Mittlerer Landweg,8000971,5,Billwerder-Moorfleet,Hamburg,Hamburg,22113,10.096658,53.515589,2024-07-11 05:36:00,2024-07-11 05:36:00,,,0,0,,on_time,on_time
768673232617426092-2407131314-3,83,Göttingen|Friedland(Han),8000090,4,Eichenberg,Hessen,Neu-Eichenberg,37249,9.921482,51.374823,2024-07-13 13:28:00,2024-07-13 13:33:00,2024-07-13 13:28:00,2024-07-13 13:33:00,0,0,,on_time,on_time
994248175250547876-2407121032-27,6,Bensheim|Heppenheim(Bergstr)|Laudenbach(Bergstr)|Hemsbach|Weinheim-Sulzbach|Weinheim(Bergstr)Hbf|Heddesheim/Hirschberg|Ladenburg|Neu-Edingen/Friedrichsfeld|Mannheim-Seckenheim|Mannheim ARENA/Maimarkt|Mannheim Hbf|Ludwigshafen(Rhein) Mitte|Ludwigshafen(Rh)Hbf|Ludwigshafen-Oggersheim|Frankenthal Süd|Frankenthal Hbf|Bobenheim|Worms Hbf|Osthofen|Mettenheim|Alsheim|Guntersblum|Dienheim|Oppenheim|Nierstein,8004193,5,Nackenheim,Rheinland-Pfalz,Nackenheim,55299,8.341885,49.919106,2024-07-12 12:23:00,2024-07-12 12:23:00,2024-07-12 12:29:00,2024-07-12 12:29:00,6,6,Information,delay,delay
3777408572275518189-2407131917-17,5,Berlin Westkreuz|Berlin Charlottenburg (S)|Berlin Savignyplatz|Berlin Zoologischer Garten (S)|Berlin-Tiergarten|Berlin Bellevue|Berlin Hbf (S-Bahn)|Berlin Friedrichstraße (S)|Berlin Hackescher Markt|Berlin Alexanderplatz (S)|Berlin Jannowitzbrücke|Berlin Ostbahnhof (S)|Berlin Warschauer Straße|Berlin Ostkreuz (S)|Berlin Nöldnerplatz|Berlin-Lichtenberg (S),8089059,4,Friedrichsfelde Ost,Berlin,Berlin,10315,13.520254,52.514169,2024-07-13 19:53:00,2024-07-13 19:53:00,2024-07-13 19:53:00,2024-07-13 19:53:00,0,0,,on_time,on_time
841306140217331951-2407081304-29,1,Berlin-Wannsee (S)|Berlin-Nikolassee|Berlin-Schlachtensee|Berlin Mexikoplatz|Berlin-Zehlendorf|Berlin Sundgauer Str|Berlin-Lichterfelde West|Berlin Botanischer Garten|Berlin Rathaus Steglitz|Berlin Feuerbachstr.|Berlin-Friedenau|Berlin-Schöneberg|Berlin Julius-Leber-Brücke|Berlin Yorckstr.(S1)|Berlin Anhalter Bf|Berlin Potsdamer Platz (S)|Berlin Brandenburger Tor|Berlin Friedrichstraße (S)|Berlin Oranienburger Straße|Berlin Nordbahnhof|Berlin Humboldthain|Berlin Gesundbrunnen(S)|Berlin Bornholmer Str.|Berlin Wollankstraße|Berlin-Schönholz|Berlin-Wilhelmsruh|Berlin-Wittenau (Wilhelmsruher Damm)|Berlin-Waidmannslust,8089064,4,Berlin-Hermsdorf,Berlin,Berlin,13467,13.30769,52.617782,2024-07-08 14:05:00,2024-07-08 14:05:00,2024-07-08 14:05:00,,0,0,Störung,on_time,on_time
-1226135237162963233-2407080930-7,23,Golm|Potsdam Park Sanssouci|Potsdam Charlottenhof|Potsdam Hbf|Potsdam Griebnitzsee|Berlin-Wannsee,8010403,3,Berlin-Charlottenburg,Berlin,Berlin,10627,13.3023298,52.5042126,2024-07-08 09:59:00,2024-07-08 10:00:00,2024-07-08 09:59:00,2024-07-08 10:00:00,0,0,,on_time,on_time
4420795620374292214-2407081854-15,8,Wildau|Zeuthen|Eichwalde|Berlin-Grünau|Berlin-Adlershof|Berlin-Johannisthal|Berlin-Schöneweide (S)|Berlin Baumschulenweg|Berlin Plänterwald|Berlin Treptower Park|Berlin Ostkreuz (S)|Berlin Frankfurter Allee|Berlin Storkower Str|Berlin Landsberger Allee,8089011,4,Greifswalder Straße,Berlin,Berlin,10409,13.439561,52.54002,2024-07-08 19:37:00,2024-07-08 19:37:00,2024-07-08 19:37:00,2024-07-08 19:37:00,0,0,,on_time,on_time
-8170333325483979011-2407131322-8,2,Delitzsch unt Bf|Zschortau|Rackwitz(Leipzig)|Leipzig Messe|Leipzig Essener Straße|Leipzig Nord|Leipzig Hbf (tief),8012186,5,Leipzig Markt,Sachsen,Leipzig Zentrum,4109,12.374612,51.34064,2024-07-13 13:46:00,2024-07-13 13:47:00,2024-07-13 13:46:00,2024-07-13 13:47:00,0,0,,on_time,on_time
-1666528954337117345-2407101651-27,1,Oranienburg|Lehnitz|Borgsdorf|Birkenwerder(b Berlin)|Hohen Neuendorf(b Berlin)|Berlin-Frohnau|Berlin-Hermsdorf|Berlin-Waidmannslust|Berlin-Wittenau (Wilhelmsruher Damm)|Berlin-Wilhelmsruh|Berlin-Schönholz|Berlin Wollankstraße|Berlin Bornholmer Str.|Berlin Gesundbrunnen(S)|Berlin Humboldthain|Berlin Nordbahnhof|Berlin Oranienburger Straße|Berlin Friedrichstraße (S)|Berlin Brandenburger Tor|Berlin Potsdamer Platz (S)|Berlin Anhalter Bf|Berlin Yorckstr.(S1)|Berlin Julius-Leber-Brücke|Berlin-Schöneberg|Berlin-Friedenau|Berlin Feuerbachstr.,8089036,4,Rathaus Steglitz,Berlin,Berlin,12165,13.322948,52.455833,2024-07-10 17:54:00,2024-07-10 17:54:00,2024-07-10 17:54:00,2024-07-10 17:54:00,0,0,,on_time,on_time
1216890052989899252-2407091016-17,20,Schönebeck-Bad Salzelmen|Schönebeck Süd|Schönebeck(Elbe)|Schönebeck-Frohse|Magdeburg Südost|Magdeburg-Salbke|Magdeburg SKET Industriepark|Magdeburg-Buckau|Magdeburg Hasselbachplatz|Magdeburg Hbf|Magdeburg-Neustadt|Magdeburg-Eichenweiler|Magdeburg-Rothensee|Wolmirstedt|Zielitz Ort|Tangerhütte,8010334,3,Stendal Hbf,Sachsen-Anhalt,Stendal,39576,11.854412,52.594723,2024-07-09 11:25:00,2024-07-09 11:33:00,2024-07-09 11:29:00,2024-07-09 11:36:00,4,3,,on_time,on_time
-1680110852371534719-2407112145-1,EV,,8000274,2,Neuss Hbf,Nordrhein-Westfalen,Neuss,41462,6.684527,51.204351,,2024-07-11 21:45:00,,,0,0,,on_time,on_time
5726311424805508043-2407121904-17,80,Annaberg-Buchholz Süd|Annaberg-Buchholz Mitte|Annaberg-Buchholz unterer Bf|Wiesa(Erzgeb)|Thermalbad Wiesenbad|Wolkenstein|Warmbad|Scharfenstein|Wilischthal|Zschopau|Zschopau Ost|Waldkirchen(Erzgeb)|Witzschdorf|Hennersdorf(Sachs)|Erdmannsdorf-Augustusburg|Flöha-Plaue,8010108,4,Flöha,Sachsen,Flöha,9557,13.075152,50.854355,2024-07-12 20:08:00,2024-07-12 20:08:00,2024-07-12 20:12:00,2024-07-12 20:12:00,4,4,,on_time,on_time
2557539299520169555-2407111540-12,3,Pinneberg|Thesdorf|Halstenbek|Krupunder|Hamburg Elbgaustraße|Hamburg-Eidelstedt|Hamburg-Stellingen|Hamburg-Langenfelde|Hamburg-Altona(S)|Hamburg Königstraße|Hamburg Reeperbahn,8003518,4,Landungsbrücken,Hamburg,Hamburg,20459,9.971281,53.546132,2024-07-11 16:08:00,2024-07-11 16:09:00,2024-07-11 16:10:00,2024-07-11 16:11:00,2,2,Information,on_time,on_time
-1203020212634027703-2407090523-21,41,Berlin Beusselstraße|Berlin Westhafen|Berlin-Wedding|Berlin Gesundbrunnen(S)|Berlin Schönhauser Allee|Berlin Prenzlauer Allee|Berlin Greifswalder Str|Berlin Landsberger Allee|Berlin Storkower Str|Berlin Frankfurter Allee|Berlin Ostkreuz (S)|Berlin Treptower Park|Berlin Sonnenallee|Berlin-Neukölln|Berlin Hermannstraße|Berlin-Tempelhof|Berlin Südkreuz (S)|Berlin-Schöneberg|Berlin Innsbrucker Platz|Berlin Bundesplatz,8089112,4,Heidelberger Platz,Berlin,Berlin,10713,13.312018,52.479972,2024-07-09 06:07:00,2024-07-09 06:08:00,2024-07-09 06:09:00,2024-07-09 06:09:00,2,1,,on_time,on_time
-2007227568339893046-2407040516-5,RB98,Münchberg|Seulbitz|Förbau|Schwarzenbach(Saale),8000287,5,Oberkotzau,Bayern,Oberkotzau,95145,11.932204,50.266389,2024-07-11 05:34:00,2024-07-11 05:34:00,2024-07-11 05:34:00,2024-07-11 05:34:00,0,0,,on_time,on_time
-6400209055042475724-2407091700-14,3,Lutherstadt Wittenberg Hbf|Zörnigall|Bülzig|Zahna|Blönsdorf|Niedergörsdorf|Jüterbog|Luckenwalde|Ludwigsfelde|Birkengrund|Großbeeren|Teltow|Berlin-Lichterfelde Ost,8011113,1,Berlin Südkreuz,Berlin,Berlin,12101,13.365319,52.475047,2024-07-09 18:22:00,2024-07-09 18:24:00,2024-07-09 18:25:00,2024-07-09 18:27:00,3,3,Information,on_time,on_time
3630374953192366891-2407091953-24,42,Berlin Beusselstraße|Berlin Jungfernheide (S)|Berlin Westend|Berlin Messe Nord/ICC (Witzleben)|Berlin Westkreuz|Berlin-Halensee|Berlin Hohenzollerndamm|Berlin Heidelberger Platz|Berlin Bundesplatz|Berlin Innsbrucker Platz|Berlin-Schöneberg|Berlin Südkreuz (S)|Berlin-Tempelhof|Berlin Hermannstraße|Berlin-Neukölln|Berlin Sonnenallee|Berlin Treptower Park|Berlin Ostkreuz (S)|Berlin Frankfurter Allee|Berlin Storkower Str|Berlin Landsberger Allee|Berlin Greifswalder Str|Berlin Prenzlauer Allee,8089039,4,Schönhauser Allee,Berlin,Berlin,10439,13.41546,52.5492,2024-07-09 20:43:00,2024-07-09 20:43:00,2024-07-09 20:43:00,2024-07-09 20:43:00,0,0,,on_time,on_time
-9018955192378693082-2407111730-4,RB41,Hamburg-Harburg|Hittfeld|Klecken,8000056,3,Buchholz (Nordheide),Niedersachsen,Buchholz i.d.Nordheide,21244,9.876266,53.324683,2024-07-11 17:45:00,2024-07-11 17:46:00,2024-07-11 17:45:00,2024-07-11 17:46:00,0,0,,on_time,on_time
-2009765057245631038-2407130929-1,200,,8000170,2,Ulm Hbf,Baden-Württemberg,Ulm,89073,9.982227,48.399437,,2024-07-13 09:29:00,,2024-07-13 09:29:00,0,0,Bauarbeiten,on_time,on_time
-1594500764573056847-2407122128-8,42,Berlin Beusselstraße|Berlin Jungfernheide (S)|Berlin Westend|Berlin Messe Nord/ICC (Witzleben)|Berlin Westkreuz|Berlin-Halensee|Berlin Hohenzollerndamm,8089112,4,Heidelberger Platz,Berlin,Berlin,10713,13.312018,52.479972,2024-07-12 21:42:00,2024-07-12 21:43:00,,,0,0,,on_time,on_time
-6322966550528363144-2407131933-18,11,Dormagen|Dormagen Chempark|Köln-Worringen|Köln-Blumenberg|Köln-Chorweiler Nord|Köln-Chorweiler|Köln Volkhovener Weg|Köln-Longerich|Köln Geldernstr./Parkgürtel|Köln-Nippes|Köln Hansaring|Köln Hbf|Köln Messe/Deutz|Köln-Buchforst|Köln-Mülheim|Köln-Holweide|Köln-Dellbrück,8001566,5,Duckterath,Nordrhein-Westfalen,Bergisch Gladbach,51427,7.103496,50.984815,2024-07-13 20:24:00,2024-07-13 20:24:00,2024-07-13 20:24:00,2024-07-13 20:25:00,0,1,Information. (Quelle: zuginfo.nrw),on_time,on_time
-1121273292484674661-2407130900-5,28,Jena Saalbf|Jena Paradies|Jena-Göschwitz|Rothenstein(Saale),8011985,5,Kahla (Thür),Thüringen,Kahla (Thür),7768,11.589104,50.808926,2024-07-13 09:18:00,2024-07-13 09:19:00,2024-07-13 09:23:00,2024-07-13 09:24:00,5,5,,on_time,on_time
-2626109179352561796-2407121811-18,5,Eppingen|Richen(b Eppingen)|Ittlingen|Reihen|Steinsfurt|Sinsheim Museum/Arena|Sinsheim(Elsenz) Hbf|Hoffenheim|Zuzenhausen|Meckesheim|Mauer(b Heidelberg)|Reilsheim|Bammental|Neckargemünd|Heidelberg Orthopädie|Heidelberg-Schlierbach/Ziegelhausen|Heidelberg-Altstadt,8002681,5,HD-Weststadt/Südstadt,Baden-Württemberg,Heidelberg,69115,8.688749,49.398324,2024-07-12 19:22:00,2024-07-12 19:23:00,2024-07-12 19:26:00,2024-07-12 19:27:00,4,4,,on_time,on_time
7411248038431463805-2407120649-1,69,,8000149,2,Hamm (Westf) Hbf,Nordrhein-Westfalen,Hamm ,59065,7.807821,51.678078,,2024-07-12 06:49:00,,,0,0,,on_time,on_time
3975035326725386248-2407100646-15,1,Schönebeck-Bad Salzelmen|Schönebeck Süd|Schönebeck(Elbe)|Schönebeck-Frohse|Magdeburg Südost|Magdeburg-Salbke|Magdeburg SKET Industriepark|Magdeburg-Buckau|Magdeburg Hasselbachplatz|Magdeburg Hbf|Magdeburg-Neustadt|Magdeburg-Eichenweiler|Magdeburg-Rothensee|Barleber See,8013344,5,Wolmirstedt,Sachsen-Anhalt,Wolmirstedt,39326,11.635619,52.250359,2024-07-10 07:24:00,2024-07-10 07:25:00,2024-07-10 07:28:00,2024-07-10 07:29:00,4,4,,on_time,on_time
3589136795997863064-2407121206-7,5,Pforzheim Hbf|Ispringen|Ersingen|Ersingen West|Bilfingen|Königsbach(Baden),8006440,5,Wilferdingen-Singen,Baden-Württemberg, Remchingen,75196,8.572415,48.953862,2024-07-12 12:21:00,2024-07-12 12:22:00,,,0,0,,on_time,on_time
541603875001060954-2407131211-13,7,Ahrensfelde (S)|Berlin Mehrower Allee|Berlin Raoul-Wallenberg-Str.|Berlin-Marzahn|Berlin Poelchaustr.|Berlin Springpfuhl|Berlin-Friedrichsfelde Ost|Berlin-Lichtenberg (S)|Berlin Nöldnerplatz|Berlin Ostkreuz (S)|Berlin Warschauer Straße|Berlin Ostbahnhof (S),8089019,4,Jannowitzbrücke,Berlin,Berlin,10179,13.419347,52.51427,2024-07-13 12:37:00,2024-07-13 12:38:00,2024-07-13 12:37:00,2024-07-13 12:38:00,0,0,,on_time,on_time
7907006661405264671-2407111512-11,S7,Solingen Hbf|Solingen Grünewald|Solingen Mitte|Solingen-Schaberg|Remscheid-Güldenwerth|Remscheid Hbf|Remscheid-Lennep|Remscheid-Lüttringhausen|Wuppertal-Ronsdorf|Wuppertal-Oberbarmen,8006596,4,Wuppertal-Barmen,Nordrhein-Westfalen,Wuppertal-Barmen,42283,7.195159,51.266972,2024-07-11 16:00:00,2024-07-11 16:01:00,2024-07-11 16:04:00,2024-07-11 16:05:00,4,4,,on_time,on_time
1613066213997302330-2407121718-22,20,Uelzen|Stederdorf(Kr Uelzen)|Wieren|Soltendieck|Schnega|Salzwedel|Pretzier(Altm)|Fleetmark|Brunau-Packebusch|Hohenwulsch|Kläden(Stendal)|Stendal Hbf|Tangerhütte|Zielitz Ort|Wolmirstedt|Magdeburg-Rothensee|Magdeburg-Eichenweiler|Magdeburg-Neustadt|Magdeburg Hbf|Magdeburg Hasselbachplatz|Magdeburg-Buckau,8013485,5,Magdeburg SKET Industriepark,Sachsen-Anhalt,Magdeburg,39104,11.638277,52.097545,2024-07-12 19:22:00,2024-07-12 19:23:00,2024-07-12 19:22:00,2024-07-12 19:23:00,0,0,,on_time,on_time
375008021876401193-2407080638-1,42,,8089118,4,Beusselstraße,Berlin,Berlin,10551,13.329042,52.534354,,2024-07-08 06:38:00,,,0,0,,on_time,on_time
6383410182220863197-2407141135-2,EV,Düsseldorf Hbf,8004694,5,Meerbusch-Osterath,Nordrhein-Westfalen,Meerbusch,40670,6.625981,51.269017,2024-07-14 11:59:00,2024-07-14 11:59:00,,,0,0,,on_time,on_time
6423594553650597221-2407130644-14,3,Mammendorf|Malching(Oberbay)|Maisach|Gernlinden|Esting|Olching|Gröbenzell|München-Lochhausen|München-Langwied|München-Pasing|München-Laim|München Hirschgarten|München Donnersbergerbrücke,8004129,3,München-Hackerbrücke,Bayern,München,80335,11.548572,48.141969,2024-07-13 07:19:00,2024-07-13 07:19:00,2024-07-13 07:21:00,2024-07-13 07:22:00,2,3,Bauarbeiten,on_time,on_time
2483384951532142654-2407100626-15,3,Backnang|Maubach|Nellmersbach|Winnenden|Schwaikheim|Neustadt-Hohenacker|Waiblingen|Fellbach|Stuttgart-Sommerrain|Stuttgart Nürnberger Str.|Stuttgart-Bad Cannstatt|Stuttgart Hbf (tief)|Stuttgart Stadtmitte|Stuttgart Feuersee,8006698,3,Stuttgart Schwabstraße,Baden-Württemberg,Stuttgart,70197,9.156959,48.770255,2024-07-10 07:05:00,2024-07-10 07:05:00,2024-07-10 07:07:00,2024-07-10 07:07:00,2,2,Information,on_time,on_time
5792133781050267254-2407140933-1,15,,8010177,5,Hoyerswerda,Sachsen,Hoyerswerda,2977,14.231407,51.432788,,2024-07-14 09:33:00,,2024-07-14 09:33:00,0,0,,on_time,on_time
-2356893980509239431-2407091508-16,6,Frankfurt(Main)Süd|Frankfurt(M)Lokalbahnhof|Frankfurt(M)Ostendstraße|Frankfurt(M)Konstablerwache|Frankfurt(M)Hauptwache|Frankfurt(M)Taunusanlage|Frankfurt Hbf (tief)|Frankfurt(M)Galluswarte|Frankfurt(Main)Messe|Frankfurt(Main)West|Frankfurt-Eschersheim|Frankfurt-Frankfurter Berg|Frankfurt-Berkersheim|Bad Vilbel Süd|Bad Vilbel,8001514,5,Dortelweil,Hessen,Bad Vilbel,61118,8.751145,50.207503,2024-07-09 15:47:00,2024-07-09 15:48:00,2024-07-09 15:47:00,2024-07-09 15:48:00,0,0,,on_time,on_time
-7868441056433054675-2407090901-10,5,Heidelberg Hbf|Heidelberg-Weststadt/Südstadt|Heidelberg-Altstadt|Heidelberg-Schlierbach/Ziegelhausen|Heidelberg Orthopädie|Neckargemünd|Bammental|Reilsheim|Mauer(b Heidelberg),8003932,4,Meckesheim,Baden-Württemberg,Meckesheim,74909,8.812836,49.320658,2024-07-09 09:27:00,2024-07-09 09:29:00,2024-07-09 09:27:00,2024-07-09 09:30:00,0,1,,on_time,on_time
3382247501636548579-2407112014-2,RE30,Wolfsburg Hbf,8001957,5,Fallersleben,Niedersachsen,Wolfsburg,38442,10.717325,52.423496,2024-07-11 20:18:00,2024-07-11 20:18:00,2024-07-11 20:18:00,2024-07-11 20:18:00,0,0,,on_time,on_time
2845964022894108076-2407111846-14,2,Aumühle|Wohltorf|Reinbek|Hamburg-Bergedorf|Hamburg-Nettelnburg|Hamburg-Allermöhe|Hamburg Mittlerer Landweg|Hamburg Billwerder-Moorfleet|Hamburg-Tiefstack|Hamburg-Rothenburgsort|Hamburg Berliner Tor|Hamburg Hbf (S-Bahn)|Hamburg Dammtor,8070146,3,Sternschanze,Hamburg,Hamburg,20357,9.967204,53.563719,2024-07-11 19:23:00,2024-07-11 19:23:00,2024-07-11 19:23:00,2024-07-11 19:23:00,0,0,,on_time,on_time
-2806327107073323742-2407122223-19,1,Hamburg Airport|Hamburg-Ohlsdorf|Hamburg Rübenkamp|Hamburg Alte Wöhr|Hamburg-Barmbek|Hamburg Friedrichsberg|Hamburg Wandsbeker Chaussee|Hamburg Hasselbrook|Hamburg Landwehr|Hamburg Berliner Tor|Hamburg Hbf (S-Bahn)|Hamburg Jungfernstieg|Hamburg Stadthausbrücke|Hamburg Landungsbrücken|Hamburg Reeperbahn|Hamburg Königstraße|Hamburg-Altona(S)|Hamburg-Ottensen,8000780,4,Bahrenfeld,Hamburg,Hamburg,22761,9.910778,53.56006,2024-07-12 23:05:00,2024-07-12 23:05:00,2024-07-12 23:06:00,2024-07-12 23:06:00,1,1,,on_time,on_time
8375098118039539586-2407112018-18,3,Hamburg-Neugraben|Hamburg Neuwiedenthal|Hamburg-Heimfeld|Hamburg-Harburg Rathaus|Hamburg-Harburg(S)|Hamburg-Wilhelmsburg|Hamburg-Veddel|Hamburg Elbbrücken|Hamburg-Hammerbrook|Hamburg Hbf (S-Bahn)|Hamburg Jungfernstieg|Hamburg Stadthausbrücke|Hamburg Landungsbrücken|Hamburg Reeperbahn|Hamburg Königstraße|Hamburg-Altona(S)|Hamburg-Langenfelde,8002559,4,Stellingen,Hamburg,Hamburg,22525,9.918336,53.589843,2024-07-11 21:06:00,2024-07-11 21:07:00,2024-07-11 21:06:00,2024-07-11 21:07:00,0,0,Information,on_time,on_time
5192597161264455361-2407081953-4,11,Bergisch Gladbach|Duckterath|Köln-Dellbrück,8003369,5,Köln-Holweide,Nordrhein-Westfalen,Köln,51067,7.041235,50.97627,2024-07-08 20:00:00,2024-07-08 20:00:00,2024-07-08 20:01:00,2024-07-08 20:01:00,1,1,,on_time,on_time
5203816444400451978-2407111033-3,3,Hattingen(Ruhr) Mitte|Hattingen(Ruhr),8001038,5,Bochum-Dahlhausen,Nordrhein-Westfalen,Bochum,44879,7.140842,51.426358,2024-07-11 10:39:00,2024-07-11 10:40:00,2024-07-11 10:39:00,2024-07-11 10:40:00,0,0,Information. (Quelle: zuginfo.nrw),on_time,on_time
328852409511442642-2407111424-2,47,Berlin Hermannstraße,8089077,3,Berlin-Neukölln,Berlin,Berlin,12055,13.44306,52.46942,2024-07-11 14:25:00,2024-07-11 14:26:00,,,0,0,,on_time,on_time
-365947887193902391-2407122105-5,8,Herrsching|Seefeld-Hechendorf|Steinebach|Weßling(Oberbay),8004249,5,Neugilching,Bayern,Gilching,82205,11.288666,48.098966,2024-07-12 21:20:00,2024-07-12 21:21:00,2024-07-12 21:22:00,2024-07-12 21:23:00,2,2,,on_time,on_time
6092799467761295454-2407130157-8,1,Hamburg-Blankenese|Hamburg Hochkamp|Hamburg Klein Flottbek|Hamburg-Othmarschen|Hamburg-Bahrenfeld|Hamburg-Ottensen|Hamburg-Altona(S),8006706,4,Königstraße,Hamburg,Hamburg,22767,9.944088,53.547796,2024-07-13 02:12:00,2024-07-13 02:13:00,2024-07-13 02:12:00,2024-07-13 02:13:00,0,0,,on_time,on_time
-8525244162052521078-2407121147-8,1,Meißen Triebischtal|Meißen Altstadt|Meißen|Neusörnewitz|Coswig(b Dresden)|Radebeul-Zitzschewig|Radebeul-Kötzschenbroda,8012700,5,Radebeul-Weintraube,Sachsen,Radebeul,1445,13.6557484,51.1031245,2024-07-12 12:06:00,2024-07-12 12:07:00,2024-07-12 12:08:00,2024-07-12 12:08:00,2,1,,on_time,on_time
1358163985008123692-2407040507-6,26,Berlin Nordbahnhof|Berlin Humboldthain|Berlin Gesundbrunnen(S)|Berlin Bornholmer Str.|Berlin-Pankow,8089081,5,Pankow-Heinersdorf,Berlin,Berlin,13186,13.429363,52.577963,2024-07-11 05:19:00,2024-07-11 05:20:00,,,0,0,,on_time,on_time
6756447695356970455-2407131439-11,5,Stuttgart Hbf|Esslingen(Neckar)|Plochingen|Göppingen|Geislingen(Steige)|Ulm Hbf|Laupheim West|Biberach(Riß)|Bad Schussenried|Aulendorf,8004965,4,Ravensburg,Baden-Württemberg,Ravensburg,88214,9.6061,47.784481,2024-07-13 16:36:00,2024-07-13 16:37:00,2024-07-13 16:36:00,2024-07-13 16:37:00,0,0,,on_time,on_time
-2231182118483702230-2407130840-27,2,Blankenfelde (S)|Mahlow|Berlin-Lichtenrade|Berlin Schichauweg|Berlin Buckower Chaussee|Berlin-Marienfelde|Berlin Attilastr.|Berlin Priesterweg|Berlin Südkreuz (S)|Berlin Yorckstr.(S2)|Berlin Anhalter Bf|Berlin Potsdamer Platz (S)|Berlin Brandenburger Tor|Berlin Friedrichstraße (S)|Berlin Oranienburger Straße|Berlin Nordbahnhof|Berlin Humboldthain|Berlin Gesundbrunnen(S)|Berlin Bornholmer Str.|Berlin-Pankow|Berlin-Pankow-Heinersdorf|Berlin-Blankenburg|Berlin-Karow|Berlin-Buch|Röntgental|Zepernick(Bernau),8089099,5,Bernau-Friedenstal,Brandenburg,Bernau,16321,13.564578,52.668385,2024-07-13 09:51:00,2024-07-13 09:52:00,2024-07-13 09:51:00,,0,0,,on_time,on_time
2138896941374490253-2407081646-4,RE44,Moers|Rheinhausen|Duisburg Hbf,8000286,2,Oberhausen Hbf,Nordrhein-Westfalen,Oberhausen,46045,6.851588,51.474878,2024-07-08 17:11:00,2024-07-08 17:13:00,2024-07-08 17:13:00,2024-07-08 17:15:00,2,2,,on_time,on_time
3122995144898671724-2407132056-24,2,Markt Schwaben|Poing|Grub(Oberbay)|Heimstetten|Feldkirchen(b München)|München-Riem|München-Berg am Laim|München Leuchtenbergring|München Ost|München Rosenheimer Platz|München Isartor|München Marienplatz|München Karlsplatz|München Hbf (tief)|München Hackerbrücke|München Donnersbergerbrücke|München Hirschgarten|München-Laim|München-Obermenzing|München-Untermenzing|München-Allach|München-Karlsfeld|Dachau Bahnhof,8006189,5,Hebertshausen,Bayern,Hebertshausen,85241,11.455487,48.291106,2024-07-13 21:55:00,2024-07-13 21:56:00,2024-07-13 21:55:00,2024-07-13 21:56:00,0,0,Bauarbeiten,on_time,on_time
-2108596639773949781-2407131957-18,60,Stuttgart Schwabstr.|Stuttgart Feuersee|Stuttgart Stadtmitte|Stuttgart Hbf (tief)|Stuttgart Nord|Stuttgart-Feuerbach|Stuttgart-Zuffenhausen|Neuwirtshaus(Porscheplatz)|Korntal|Weilimdorf|Ditzingen|Höfingen|Leonberg|Rutesheim|Renningen|Renningen Süd|Magstadt,8003834,5,Maichingen Nord,Baden-Württemberg,Sindelfingen,71069,8.979257,48.72736,2024-07-13 20:47:00,2024-07-13 20:47:00,2024-07-13 20:47:00,2024-07-13 20:48:00,0,1,Information,on_time,on_time
998399659754772754-2407101448-17,1,Hamburg-Poppenbüttel|Hamburg-Wellingsbüttel|Hamburg Hoheneichen|Hamburg Kornweg(Klein Borstel)|Hamburg-Ohlsdorf|Hamburg Rübenkamp|Hamburg Alte Wöhr|Hamburg-Barmbek|Hamburg Friedrichsberg|Hamburg Wandsbeker Chaussee|Hamburg Hasselbrook|Hamburg Landwehr|Hamburg Berliner Tor|Hamburg Hbf (S-Bahn)|Hamburg Jungfernstieg|Hamburg Stadthausbrücke,8003518,4,Landungsbrücken,Hamburg,Hamburg,20459,9.971281,53.546132,2024-07-10 15:24:00,2024-07-10 15:25:00,2024-07-10 15:24:00,2024-07-10 15:25:00,0,0,Störung,on_time,on_time
3573720910347828828-2407111415-1,3,,8005776,3,Stuttgart-Vaihingen,Baden-Württemberg,Stuttgart,70563,9.113226,48.726279,,2024-07-11 14:15:00,,2024-07-11 14:15:00,0,0,Information,on_time,on_time
-3435199071962064516-2407100511-10,3,Hamburg Elbgaustraße|Hamburg-Eidelstedt|Hamburg-Stellingen|Hamburg-Langenfelde|Hamburg-Altona(S)|Hamburg Königstraße|Hamburg Reeperbahn|Hamburg Landungsbrücken|Hamburg Stadthausbrücke,8003137,4,Jungfernstieg,Hamburg,Hamburg,20095,9.993883,53.552194,2024-07-10 05:32:00,2024-07-10 05:33:00,,,0,0,Information,on_time,on_time
-2806508315889445611-2407080808-21,41,Berlin Beusselstraße|Berlin Westhafen|Berlin-Wedding|Berlin Gesundbrunnen(S)|Berlin Schönhauser Allee|Berlin Prenzlauer Allee|Berlin Greifswalder Str|Berlin Landsberger Allee|Berlin Storkower Str|Berlin Frankfurter Allee|Berlin Ostkreuz (S)|Berlin Treptower Park|Berlin Sonnenallee|Berlin-Neukölln|Berlin Hermannstraße|Berlin-Tempelhof|Berlin Südkreuz (S)|Berlin-Schöneberg|Berlin Innsbrucker Platz|Berlin Bundesplatz,8089112,4,Heidelberger Platz,Berlin,Berlin,10713,13.312018,52.479972,2024-07-08 08:52:00,2024-07-08 08:53:00,2024-07-08 08:52:00,2024-07-08 08:53:00,0,0,,on_time,on_time
1257914138301379393-2407141956-21,3,Halle-Nietleben|Halle-Neustadt|Halle Zscherbener Straße|Halle Südstadt|Halle-Silberhöhe|Halle Rosengarten|Halle(Saale)Hbf|Halle Messe|Dieskau|Gröbers|Großkugel|Schkeuditz West|Schkeuditz|Leipzig-Lützschena|Leipzig-Wahren|Leipzig Slevogtstraße|Leipzig Olbrichtstraße|Leipzig-Gohlis|Leipzig Hbf (tief)|Leipzig Markt,8012202,5,Leipzig Wilhelm-Leuschner-Platz,Sachsen,Leipzig,4107,12.375394,51.335396,2024-07-14 21:03:00,2024-07-14 21:03:00,2024-07-14 21:03:00,2024-07-14 21:04:00,0,1,,on_time,on_time
7611398631120846033-2407141659-5,1,Leipzig-Stötteritz|Leipzig Völkerschlachtdenkmal|Leipzig MDR|Leipzig Bayerischer Bahnhof,8012202,5,Leipzig Wilhelm-Leuschner-Platz,Sachsen,Leipzig,4107,12.375394,51.335396,2024-07-14 17:08:00,2024-07-14 17:08:00,2024-07-14 17:08:00,2024-07-14 17:09:00,0,1,,on_time,on_time
1396847473976670666-2407121233-15,1,Hamburg Airport|Hamburg-Ohlsdorf|Hamburg Rübenkamp|Hamburg Alte Wöhr|Hamburg-Barmbek|Hamburg Friedrichsberg|Hamburg Wandsbeker Chaussee|Hamburg Hasselbrook|Hamburg Landwehr|Hamburg Berliner Tor|Hamburg Hbf (S-Bahn)|Hamburg Jungfernstieg|Hamburg Stadthausbrücke|Hamburg Landungsbrücken,8006705,4,Reeperbahn,Hamburg,Hamburg,20359,9.957668,53.549668,2024-07-12 13:06:00,2024-07-12 13:07:00,2024-07-12 13:08:00,2024-07-12 13:09:00,2,2,,on_time,on_time
-1775261261621820340-2407090518-16,1,Hamburg-Poppenbüttel|Hamburg-Wellingsbüttel|Hamburg Hoheneichen|Hamburg Kornweg(Klein Borstel)|Hamburg-Ohlsdorf|Hamburg Rübenkamp|Hamburg Alte Wöhr|Hamburg-Barmbek|Hamburg Friedrichsberg|Hamburg Wandsbeker Chaussee|Hamburg Hasselbrook|Hamburg Landwehr|Hamburg Berliner Tor|Hamburg Hbf (S-Bahn)|Hamburg Jungfernstieg,8005663,4,Stadthausbrücke,Hamburg,Hamburg,20354,9.984804,53.549465,2024-07-09 05:52:00,2024-07-09 05:53:00,,,0,0,,on_time,on_time
-5013399362023120489-2407081811-5,5,Wesel|Voerde(Niederrhein)|Dinslaken|Oberhausen-Sterkrade,8000286,2,Oberhausen Hbf,Nordrhein-Westfalen,Oberhausen,46045,6.851588,51.474878,2024-07-08 18:32:00,2024-07-08 18:33:00,2024-07-08 18:32:00,2024-07-08 18:33:00,0,0,,on_time,on_time
-847681280324157984-2407100923-10,5,Hamburg Elbgaustraße|Hamburg-Eidelstedt|Hamburg-Stellingen|Hamburg-Langenfelde|Hamburg Holstenstraße|Hamburg-Sternschanze|Hamburg Dammtor|Hamburg Hbf (S-Bahn)|Hamburg-Hammerbrook,8002551,4,Elbbrücken,Hamburg,Hamburg,20457,10.0246596,53.534824,2024-07-10 09:47:00,2024-07-10 09:47:00,,,0,0,Information,on_time,on_time
-7265365170680474416-2407122358-22,2,Erding|Altenerding|Aufhausen(b Erding)|St Koloman|Ottenhofen(Oberbay)|Markt Schwaben|Poing|Grub(Oberbay)|Heimstetten|Feldkirchen(b München)|München-Riem|München-Berg am Laim|München Leuchtenbergring|München Ost|München Rosenheimer Platz|München Isartor|München Marienplatz|München Karlsplatz|München Hbf (tief)|München Hackerbrücke|München Donnersbergerbrücke,8004179,3,München-Hirschgarten,Bayern,München,80639,11.519245,48.14354,2024-07-13 00:52:00,2024-07-13 00:53:00,2024-07-13 00:54:00,2024-07-13 00:55:00,2,2,Bauarbeiten,on_time,on_time
-7276486407915989154-2407091218-3,9,Berlin-Spandau (S)|Berlin-Stresow,8089331,5,Pichelsberg,Berlin,Berlin,14055,13.227134,52.510393,2024-07-09 12:23:00,2024-07-09 12:23:00,2024-07-09 12:23:00,2024-07-09 12:23:00,0,0,Störung,on_time,on_time
-6760438580999673386-2407102038-12,27,Mönchengladbach Hbf|Rheydt Hbf|Rheydt-Odenkirchen|Hochneukirch|Jüchen|Grevenbroich|Rommerskirchen|Stommeln|Pulheim|Köln-Ehrenfeld|Köln Hbf,8003368,1,Köln Messe/Deutz,Nordrhein-Westfalen,Köln,50679,6.975001,50.940874,2024-07-10 21:40:00,2024-07-10 21:41:00,2024-07-10 21:41:00,2024-07-10 21:42:00,1,1,Bauarbeiten. (Quelle: zuginfo.nrw),on_time,on_time
-171524654497561379-2407121424-6,1,Frankfurt-Höchst|Frankfurt-Nied|Frankfurt-Griesheim|Frankfurt Hbf (tief)|Frankfurt(M)Taunusanlage,8006692,3,Frankfurt (Main) Hauptwache,Hessen,Frankfurt am Main,60313,8.678947,50.113926,2024-07-12 14:37:00,2024-07-12 14:38:00,,,0,0,,on_time,on_time
-4245903808190082006-2407140424-14,8,München Flughafen Terminal|München Flughafen Besucherpark|Hallbergmoos|Ismaning|Unterföhring|München-Johanneskirchen|München-Englschalking|München-Daglfing|München Leuchtenbergring|München Ost|München Rosenheimer Platz|München Isartor|München Marienplatz,8004132,3,München Karlsplatz,Bayern,München,80331,11.565619,48.139452,2024-07-14 05:01:00,2024-07-14 05:02:00,2024-07-14 05:02:00,2024-07-14 05:03:00,1,1,,on_time,on_time
-1548787269638093829-2407122005-9,8,Herrsching|Seefeld-Hechendorf|Steinebach|Weßling(Oberbay)|Neugilching|Gilching-Argelsried|Geisenbrunn|Germering-Unterpfaffenhofen,8002610,5,Harthaus,Bayern,Germering,82110,11.387867,48.133502,2024-07-12 20:33:00,2024-07-12 20:34:00,2024-07-12 20:33:00,2024-07-12 20:34:00,0,0,,on_time,on_time
3977035715396920935-2407120643-3,RB15,Frankfurt(Main)Hbf|Frankfurt-Rödelheim,8004596,4,Oberursel (Taunus),Hessen,Oberursel (Taunus),61440,8.589409,50.199423,2024-07-12 07:03:00,2024-07-12 07:05:00,2024-07-12 07:06:00,2024-07-12 07:06:00,3,1,,on_time,on_time
830627416811346853-2407111718-22,2,Schorndorf|Weiler(Rems)|Winterbach(b Schorndorf)|Geradstetten|Grunbach|Beutelsbach|Endersbach|Stetten-Beinstein|Rommelshausen|Waiblingen|Fellbach|Stuttgart-Sommerrain|Stuttgart Nürnberger Str.|Stuttgart-Bad Cannstatt|Stuttgart Hbf (tief)|Stuttgart Stadtmitte|Stuttgart Feuersee|Stuttgart Schwabstr.|Stuttgart Universität|Stuttgart-Österfeld|Stuttgart-Vaihingen,8005773,4,Stuttgart-Rohr,Baden-Württemberg,Stuttgart,70565,9.108328,48.717902,2024-07-11 18:11:00,2024-07-11 18:12:00,2024-07-11 18:12:00,2024-07-11 18:12:00,1,0,Störung,on_time,on_time
-3899768566797264689-2407090826-21,3,Halle-Nietleben|Halle-Neustadt|Halle Zscherbener Straße|Halle Südstadt|Halle-Silberhöhe|Halle Rosengarten|Halle(Saale)Hbf|Halle Messe|Dieskau|Gröbers|Großkugel|Schkeuditz West|Schkeuditz|Leipzig-Lützschena|Leipzig-Wahren|Leipzig Slevogtstraße|Leipzig Olbrichtstraße|Leipzig-Gohlis|Leipzig Hbf (tief)|Leipzig Markt,8012202,5,Leipzig Wilhelm-Leuschner-Platz,Sachsen,Leipzig,4107,12.375394,51.335396,2024-07-09 09:33:00,2024-07-09 09:33:00,2024-07-09 09:33:00,2024-07-09 09:34:00,0,1,,on_time,on_time
3717406479992656302-2407131440-9,28,Kaarst IKEA|Neuss Hbf|Neuss Am Kaiser|Neuss Rheinparkcenter|Düsseldorf-Hamm|Düsseldorf Völklinger Str.|Düsseldorf-Bilk|Düsseldorf Friedrichstadt,8000085,1,Düsseldorf Hbf,Nordrhein-Westfalen,Düsseldorf,40210,6.794319,51.219962,2024-07-13 15:04:00,2024-07-13 15:06:00,2024-07-13 15:05:00,2024-07-13 15:06:00,1,0,Störung. (Quelle: zuginfo.nrw),on_time,on_time
-716570226250594489-2407081706-2,RB15,Bad Homburg,8005544,5,Seulberg,Hessen,Friedrichsdorf,61381,8.646005,50.241906,2024-07-08 17:10:00,2024-07-08 17:10:00,2024-07-08 17:10:00,2024-07-08 17:10:00,0,0,,on_time,on_time
1253639133482912243-2407132114-11,4,Geltendorf|Türkenfeld|Grafrath|Schöngeising|Buchenau(Oberbay)|Fürstenfeldbruck|Eichenau(Oberbay)|Puchheim|München-Aubing|München Leienfelsstr.,8004158,2,München-Pasing,Bayern,München,81241,11.461872,48.149852,2024-07-13 21:46:00,2024-07-13 21:47:00,2024-07-13 21:46:00,2024-07-13 21:49:00,0,2,,on_time,on_time
-2705601320670583212-2407112124-30,6,Tutzing|Feldafing|Possenhofen|Starnberg|Starnberg Nord|Gauting|Stockdorf|Planegg|Gräfelfing|Lochham|München-Westkreuz|München-Pasing|München-Laim|München Hirschgarten|München Donnersbergerbrücke|München Hackerbrücke|München Hbf (tief)|München Karlsplatz|München Marienplatz|München Isartor|München Rosenheimer Platz|München Ost|München Leuchtenbergring|München-Berg am Laim|München-Trudering|Gronsdorf|Haar|Vaterstetten|Baldham,8006671,5,Zorneding,Bayern,Zorneding,85604,11.832456,48.089601,2024-07-11 22:37:00,2024-07-11 22:37:00,2024-07-11 23:07:00,2024-07-11 23:07:00,30,30,,delay,delay
5569888090704557125-2407100919-10,3,Passau Hbf|Vilshofen(Niederbay)|Osterhofen(Nby)|Plattling|Wallersdorf|Landau(Isar)|Dingolfing|Wörth(Isar)|Landshut(Bay)Hbf,8004084,4,Moosburg,Bayern,Moosburg,85368,11.930382,48.47033,2024-07-10 10:59:00,2024-07-10 11:00:00,2024-07-10 10:59:00,2024-07-10 11:00:00,0,0,Störung,on_time,on_time
5883245675830170090-2407100548-22,3,Hamburg-Neugraben|Hamburg Neuwiedenthal|Hamburg-Heimfeld|Hamburg-Harburg Rathaus|Hamburg-Harburg(S)|Hamburg-Wilhelmsburg|Hamburg-Veddel|Hamburg Elbbrücken|Hamburg-Hammerbrook|Hamburg Hbf (S-Bahn)|Hamburg Jungfernstieg|Hamburg Stadthausbrücke|Hamburg Landungsbrücken|Hamburg Reeperbahn|Hamburg Königstraße|Hamburg-Altona(S)|Hamburg-Langenfelde|Hamburg-Stellingen|Hamburg-Eidelstedt|Hamburg Elbgaustraße|Krupunder,8002545,4,Halstenbek,Schleswig-Holstein,Halstenbek,25469,9.839092,53.630377,2024-07-10 06:47:00,2024-07-10 06:47:00,2024-07-10 06:47:00,2024-07-10 06:47:00,0,0,Information,on_time,on_time
2931906224447066494-2407112250-14,RE5,Salzburg Hbf|Salzburg Mülln-Altstadt|Freilassing|Teisendorf|Traunstein|Bergen(Oberbay)|Übersee|Bernau a Chiemsee|Prien am Chiemsee|Bad Endorf|Rosenheim|Großkarolinenfeld|Ostermünchen,8000634,5,Aßling (Oberbay),Bayern,Aßling ,85617,11.993518,47.989491,2024-07-12 00:26:00,2024-07-12 00:27:00,2024-07-12 00:42:00,2024-07-12 00:43:00,16,16,,delay,delay
-7608717711373697266-2407101101-3,RB24,Nettersheim|Urft,8003158,5,Kall,Nordrhein-Westfalen,Kall,53925,6.557283,50.538493,2024-07-10 11:16:00,2024-07-10 11:16:00,2024-07-10 11:19:00,2024-07-10 11:19:00,3,3,,on_time,on_time
-8566565430906309107-2407091317-2,RE10,Hannover Hbf,8005292,5,Sarstedt,Niedersachsen,Sarstedt,31157,9.842592,52.2326,2024-07-09 13:30:00,2024-07-09 13:30:00,2024-07-09 13:30:00,2024-07-09 13:30:00,0,0,,on_time,on_time
6410032248769578475-2407141743-20,1,Hamburg Airport|Hamburg-Ohlsdorf|Hamburg Rübenkamp|Hamburg Alte Wöhr|Hamburg-Barmbek|Hamburg Friedrichsberg|Hamburg Wandsbeker Chaussee|Hamburg Hasselbrook|Hamburg Landwehr|Hamburg Berliner Tor|Hamburg Hbf (S-Bahn)|Hamburg Jungfernstieg|Hamburg Stadthausbrücke|Hamburg Landungsbrücken|Hamburg Reeperbahn|Hamburg Königstraße|Hamburg-Altona(S)|Hamburg-Ottensen|Hamburg-Bahrenfeld,8004719,4,Othmarschen,Hamburg,Hamburg,22605,9.885967,53.559233,2024-07-14 18:27:00,2024-07-14 18:28:00,2024-07-14 18:27:00,2024-07-14 18:28:00,0,0,,on_time,on_time
1289268753873593751-2407040459-6,20,Aachen-Rothe Erde|Aachen Hbf|Aachen Schanz|Aachen West|Kohlscheid,8002806,3,Herzogenrath,Nordrhein-Westfalen,Herzogenrath,52134,6.094486,50.870916,2024-07-11 05:19:00,2024-07-11 05:19:00,2024-07-11 05:19:00,2024-07-11 05:19:00,0,0,Störung. (Quelle: zuginfo.nrw),on_time,on_time
-4310794716502295019-2407110724-5,3,München Hbf|Freising|Moosburg|Landshut(Bay)Hbf,8006537,5,Wörth (Isar),Bayern,Wörth an der Isar,84109,12.332925,48.624182,2024-07-11 08:27:00,2024-07-11 08:27:00,2024-07-11 08:27:00,2024-07-11 08:32:00,0,5,,on_time,on_time
1708964253225936559-2407040540-17,27,Koblenz Hbf|Koblenz-Ehrenbreitstein|Vallendar|Engers|Neuwied|Leutesdorf(Rhein)|Rheinbrohl|Bad Hönningen|Leubsdorf(Rhein)|Linz(Rhein)|Erpel(Rhein)|Unkel|Bad Honnef(Rhein)|Rhöndorf|Königswinter|Niederdollendorf,8001086,5,Bonn-Oberkassel,Nordrhein-Westfalen,Bonn,53227,7.1593,50.715073,2024-07-11 06:43:00,2024-07-11 06:43:00,2024-07-11 06:43:00,2024-07-11 06:43:00,0,0,Bauarbeiten. (Quelle: zuginfo.nrw),on_time,on_time
-597231618192569498-2407090806-2,31,Magdeburg Hbf,8013456,4,Magdeburg-Buckau,Sachsen-Anhalt,Magdeburg,39104,11.63004,52.109204,2024-07-09 08:10:00,2024-07-09 08:11:00,2024-07-09 08:10:00,2024-07-09 08:11:00,0,0,,on_time,on_time
5193211904643119087-2407080609-1,4,,8000080,1,Dortmund Hbf,Nordrhein-Westfalen,Dortmund,44137,7.45929,51.517896,,2024-07-08 06:09:00,,2024-07-08 06:09:00,0,0,,on_time,on_time
9023675287505911926-2407142108-16,5,Friedrichsdorf(Taunus)|Seulberg|Bad Homburg|Oberursel(Taunus)|Oberursel-Stierstadt|Oberursel-Weißkirchen/Steinbach|Frankfurt-Rödelheim|Frankfurt(Main)West|Frankfurt(Main)Messe|Frankfurt(M)Galluswarte|Frankfurt Hbf (tief)|Frankfurt(M)Taunusanlage|Frankfurt(M)Hauptwache|Frankfurt(M)Konstablerwache|Frankfurt(M)Ostendstraße,8002038,4,Frankfurt (Main) Lokalbahnhof,Hessen,Frankfurt am Main,60598,8.693025,50.102171,2024-07-14 21:45:00,2024-07-14 21:46:00,2024-07-14 21:45:00,2024-07-14 21:46:00,0,0,,on_time,on_time
-7447144318207437587-2407101749-1,80,,8000128,2,Göttingen,Niedersachsen,Göttingen,37073,9.926072,51.536815,,2024-07-10 17:49:00,,,0,0,Information,on_time,on_time
7507600567058175773-2407131348-18,3,Hamburg-Neugraben|Hamburg Neuwiedenthal|Hamburg-Heimfeld|Hamburg-Harburg Rathaus|Hamburg-Harburg(S)|Hamburg-Wilhelmsburg|Hamburg-Veddel|Hamburg Elbbrücken|Hamburg-Hammerbrook|Hamburg Hbf (S-Bahn)|Hamburg Jungfernstieg|Hamburg Stadthausbrücke|Hamburg Landungsbrücken|Hamburg Reeperbahn|Hamburg Königstraße|Hamburg-Altona(S)|Hamburg-Langenfelde,8002559,4,Stellingen,Hamburg,Hamburg,22525,9.918336,53.589843,2024-07-13 14:36:00,2024-07-13 14:37:00,2024-07-13 14:36:00,2024-07-13 14:37:00,0,0,Information,on_time,on_time
425171694515136615-2407140708-2,7,Rheine,8001782,4,Emsdetten,Nordrhein-Westfalen,Emsdetten,48282,7.531528,52.17675,2024-07-14 07:16:00,2024-07-14 07:16:00,2024-07-14 07:16:00,2024-07-14 07:16:00,0,0,Bauarbeiten. (Quelle: zuginfo.nrw),on_time,on_time
-1564807462816635411-2407111015-5,5X,Halle(Saale)Hbf|Leipzig/Halle Flughafen|Leipzig Messe|Leipzig Hbf (tief),8012186,5,Leipzig Markt,Sachsen,Leipzig Zentrum,4109,12.374612,51.34064,2024-07-11 10:41:00,2024-07-11 10:42:00,2024-07-11 10:41:00,2024-07-11 10:42:00,0,0,Bauarbeiten,on_time,on_time
2710606733808210694-2407040452-8,8,Halle(Saale)Hbf|Hohenthurm|Landsberg(b. Halle/Saale)|Brehna|Roitzsch(Bitterf)|Bitterfeld|Greppin,8013335,5,Wolfen (Bitterfeld),Sachsen-Anhalt,Bitterfeld-Wolfen ,6766,12.279563,51.661159,2024-07-11 05:23:00,2024-07-11 05:23:00,2024-07-11 05:23:00,2024-07-11 05:24:00,0,1,,on_time,on_time
-5435568112216648591-2407081656-13,3,Halle-Nietleben|Halle-Neustadt|Halle Zscherbener Straße|Halle Südstadt|Halle-Silberhöhe|Halle Rosengarten|Halle(Saale)Hbf|Halle Messe|Dieskau|Gröbers|Großkugel|Schkeuditz West,8012865,5,Schkeuditz,Sachsen,Schkeuditz,4435,12.222169,51.40239,2024-07-08 17:41:00,2024-07-08 17:42:00,2024-07-08 17:41:00,2024-07-08 17:42:00,0,0,,on_time,on_time
4582634191132744066-2407111054-23,6,Grafing Bahnhof|Kirchseeon|Eglharting|Zorneding|Baldham|Vaterstetten|Haar|Gronsdorf|München-Trudering|München-Berg am Laim|München Leuchtenbergring|München Ost|München Rosenheimer Platz|München Isartor|München Marienplatz|München Karlsplatz|München Hbf (tief)|München Hackerbrücke|München Donnersbergerbrücke|München Hirschgarten|München-Laim|München-Pasing,8004163,4,München-Westkreuz,Bayern,München,81243,11.44394,48.149026,2024-07-11 11:42:00,2024-07-11 11:43:00,2024-07-11 11:44:00,2024-07-11 11:45:00,2,2,Bauarbeiten,on_time,on_time
3806052623024290386-2407040619-9,1,Magdeburg Hbf|Magdeburg-Neustadt|Magdeburg Herrenkrug|Biederitz|Gerwisch|Möser|Burg(Magdeburg)|Güsen(b Genthin),8010123,4,Genthin,Sachsen-Anhalt,Genthin,39307,12.157103,52.40322,2024-07-11 06:58:00,2024-07-11 06:58:00,2024-07-11 06:58:00,2024-07-11 06:58:00,0,0,,on_time,on_time
6754537059545912492-2407120545-2,14,Mainz Hbf,8004714,4,Osthofen,Rheinland-Pfalz,Osthofen,67574,8.325988,49.705423,2024-07-12 06:06:00,2024-07-12 06:07:00,2024-07-12 06:10:00,2024-07-12 06:10:00,4,3,Bauarbeiten,on_time,on_time
-9191099503775902934-2407141831-4,EV,Mettmann Stadtwald|Wuppertal-Hahnenfurth/Düssel|Wuppertal-Vohwinkel,8006623,4,Wuppertal Zoologischer Garten,Nordrhein-Westfalen,Wuppertal,42117,7.10702,51.243469,2024-07-14 18:56:00,2024-07-14 18:56:00,2024-07-14 18:56:00,2024-07-14 18:56:00,0,0,,on_time,on_time
123481963082744992-2407131445-1,32,,8013487,3,Oranienburg,Brandenburg,Oranienburg,16515,13.249613,52.753653,,2024-07-13 14:45:00,,,0,0,,on_time,on_time
5759550549507396459-2407081550-4,2,Essen Hbf|Essen-Kray Nord|Gelsenkirchen-Rotthausen,8000118,2,Gelsenkirchen Hbf,Nordrhein-Westfalen,Gelsenkirchen,45879,7.102455,51.504903,2024-07-08 16:00:00,2024-07-08 16:02:00,2024-07-08 16:04:00,2024-07-08 16:05:00,4,3,Bauarbeiten. (Quelle: zuginfo.nrw),on_time,on_time
-377270736863598262-2407142234-26,1,Berlin-Wannsee (S)|Berlin-Nikolassee|Berlin-Schlachtensee|Berlin Mexikoplatz|Berlin-Zehlendorf|Berlin Sundgauer Str|Berlin-Lichterfelde West|Berlin Botanischer Garten|Berlin Rathaus Steglitz|Berlin Feuerbachstr.|Berlin-Friedenau|Berlin-Schöneberg|Berlin Julius-Leber-Brücke|Berlin Yorckstr.(S1)|Berlin Anhalter Bf|Berlin Potsdamer Platz (S)|Berlin Brandenburger Tor|Berlin Friedrichstraße (S)|Berlin Oranienburger Straße|Berlin Nordbahnhof|Berlin Humboldthain|Berlin Gesundbrunnen(S)|Berlin Bornholmer Str.|Berlin Wollankstraße|Berlin-Schönholz,8089095,4,Berlin-Wilhelmsruh,Berlin,Berlin,13158,13.362976,52.581447,2024-07-14 23:27:00,2024-07-14 23:28:00,2024-07-14 23:28:00,2024-07-14 23:29:00,1,1,Störung,on_time,on_time
-4644923690044262082-2407140156-3,75,Berlin Warschauer Straße|Berlin Ostkreuz (S),8089026,5,Nöldnerplatz,Berlin,Berlin,10317,13.484452,52.503497,2024-07-14 02:02:00,2024-07-14 02:03:00,2024-07-14 02:03:00,2024-07-14 02:03:00,1,0,,on_time,on_time
-8424397086590686418-2407040531-22,1,Oranienburg|Lehnitz|Borgsdorf|Birkenwerder(b Berlin)|Hohen Neuendorf(b Berlin)|Berlin-Frohnau|Berlin-Hermsdorf|Berlin-Waidmannslust|Berlin-Wittenau (Wilhelmsruher Damm)|Berlin-Wilhelmsruh|Berlin-Schönholz|Berlin Wollankstraße|Berlin Bornholmer Str.|Berlin Gesundbrunnen(S)|Berlin Humboldthain|Berlin Nordbahnhof|Berlin Oranienburger Straße|Berlin Friedrichstraße (S)|Berlin Brandenburger Tor|Berlin Potsdamer Platz (S)|Berlin Anhalter Bf,8089051,4,Yorckstraße (Großgörschenstraße),Berlin,Berlin,10827,13.367797,52.492289,2024-07-11 06:24:00,2024-07-11 06:25:00,2024-07-11 06:25:00,2024-07-11 06:26:00,1,1,,on_time,on_time
-4108501928622285693-2407120348-2,4,Torgau,8012371,5,Mockrehna,Sachsen,Mockrehna,4838,12.819504,51.505606,2024-07-12 03:57:00,2024-07-12 03:58:00,,,0,0,,on_time,on_time
-5697514072659501057-2407140004-18,8,Birkenwerder(b Berlin)|Hohen Neuendorf(b Berlin)|Bergfelde(b Berlin)|Schönfließ(b Oranienburg)|Mühlenbeck-Mönchmühle|Berlin-Blankenburg|Berlin-Pankow-Heinersdorf|Berlin-Pankow|Berlin Bornholmer Str.|Berlin Schönhauser Allee|Berlin Prenzlauer Allee|Berlin Greifswalder Str|Berlin Landsberger Allee|Berlin Storkower Str|Berlin Frankfurter Allee|Berlin Ostkreuz (S)|Berlin Treptower Park,8089030,4,Plänterwald,Berlin,Berlin,12435,13.473126,52.478542,2024-07-14 00:53:00,2024-07-14 00:53:00,2024-07-14 00:53:00,2024-07-14 00:53:00,0,0,,on_time,on_time
6448007399316496634-2407130639-4,9,Mannheim Hbf|Mannheim-Neckarau|Mannheim-Rheinau,8005493,5,Schwetzingen-Hirschacker,Baden-Württemberg,Schwetzingen,68723,8.55634,49.4068,2024-07-13 06:49:00,2024-07-13 06:49:00,2024-07-13 06:49:00,2024-07-13 06:50:00,0,1,Information,on_time,on_time
477590962609223029-2407130055-1,4,,8000365,5,Dombühl,Bayern,Dombühl,91601,10.298523,49.25211,,2024-07-13 00:55:00,,,0,0,,on_time,on_time
2654895242616476962-2407101953-14,41,Berlin Beusselstraße|Berlin Westhafen|Berlin-Wedding|Berlin Gesundbrunnen(S)|Berlin Schönhauser Allee|Berlin Prenzlauer Allee|Berlin Greifswalder Str|Berlin Landsberger Allee|Berlin Storkower Str|Berlin Frankfurter Allee|Berlin Ostkreuz (S)|Berlin Treptower Park|Berlin Sonnenallee,8089077,3,Berlin-Neukölln,Berlin,Berlin,12055,13.44306,52.46942,2024-07-10 20:22:00,2024-07-10 20:22:00,2024-07-10 20:22:00,2024-07-10 20:22:00,0,0,,on_time,on_time
-1953204875531398084-2407130844-10,66,Kochel|Benediktbeuern|Bichl|Penzberg|Iffeldorf|Seeshaupt|Bernried|Tutzing|Starnberg,8004158,2,München-Pasing,Bayern,München,81241,11.461872,48.149852,2024-07-13 09:51:00,2024-07-13 09:52:00,2024-07-13 09:53:00,2024-07-13 09:54:00,2,2,Störung,on_time,on_time
-8117698018396659816-2407141712-5,1,Magdeburg Hbf|Magdeburg-Neustadt|Burg(Magdeburg)|Güsen(b Genthin),8010123,4,Genthin,Sachsen-Anhalt,Genthin,39307,12.157103,52.40322,2024-07-14 17:43:00,2024-07-14 17:44:00,2024-07-14 17:43:00,2024-07-14 17:44:00,0,0,,on_time,on_time
6220447137645637542-2407090725-5,70,Kiel Hbf|Bordesholm|Neumünster|Brokstedt,8006572,4,Wrist,Schleswig-Holstein,Wrist,25563,9.748128,53.932382,2024-07-09 07:58:00,2024-07-09 07:59:00,2024-07-09 07:58:00,2024-07-09 07:59:00,0,0,,on_time,on_time
1425773803268788033-2407132331-3,6,Bensheim|Heppenheim(Bergstr),8003571,5,Laudenbach (Bergstr),Baden-Württemberg,Laudenbach (Bergstr),69514,8.644539,49.612076,2024-07-13 23:38:00,2024-07-13 23:38:00,2024-07-13 23:41:00,2024-07-13 23:42:00,3,4,Information,on_time,on_time
-1410150364318698983-2407120950-5,7,Frankfurt(Main)Hbf|Frankfurt-Niederrad|Frankfurt am Main - Stadion|Zeppelinheim,8006175,4,Walldorf (Hess),Hessen,Mörfelden-Walldorf,64546,8.580811,50.001339,2024-07-12 10:06:00,2024-07-12 10:06:00,2024-07-12 10:08:00,2024-07-12 10:09:00,2,3,Information,on_time,on_time
3626847589384955327-2407091455-10,6,Leipzig Hbf (tief)|Leipzig Markt|Leipzig Wilhelm-Leuschner-Platz|Leipzig Bayerischer Bahnhof|Leipzig MDR|Leipzig-Connewitz|Markkleeberg Nord|Markkleeberg|Markkleeberg-Großstädteln,8011598,5,Markkleeberg-Gaschwitz,Sachsen,Markkleeberg OT Gaschwitz,4416,12.3791456,51.2498991,2024-07-09 15:14:00,2024-07-09 15:14:00,2024-07-09 15:16:00,2024-07-09 15:17:00,2,3,,on_time,on_time
-7832801453514250175-2407102251-27,1,Dortmund Hbf|Dortmund-Dorstfeld|Dortmund-Dorstfeld Süd|Dortmund Universität|Dortmund-Oespel|Dortmund-Kley|Bochum-Langendreer|Bochum-Langendreer West|Bochum Hbf|Bochum-Ehrenfeld|Wattenscheid-Höntrop|Essen-Eiberg|Essen-Steele Ost|Essen-Steele|Essen Hbf|Essen West|Essen-Frohnhausen|Mülheim(Ruhr)Hbf|Mülheim(Ruhr)Styrum|Duisburg Hbf|Duisburg-Schlenk|Duisburg-Buchholz|Duisburg-Großenbaum|Duisburg-Rahm|Angermund|Düsseldorf Flughafen,8001595,4,Düsseldorf-Unterrath,Nordrhein-Westfalen,Düsseldorf,40468,6.788783,51.276732,2024-07-11 00:14:00,2024-07-11 00:14:00,2024-07-11 00:20:00,2024-07-11 00:21:00,6,7,Information. (Quelle: zuginfo.nrw),delay,delay
-4635456032690953654-2407081729-2,5,Strausberg Nord,8081420,5,Strausberg Stadt,Brandenburg,Strausberg,15344,13.888133,52.57698,2024-07-08 17:32:00,2024-07-08 17:32:00,,,0,0,,on_time,on_time
3109554583271734749-2407121328-9,RB43,Donaueschingen|Geisingen|Immendingen Zimmern|Immendingen|Immendingen Mitte|Möhringen Rathaus|Möhringen Bahnhof|Tuttlingen Gänsäcker,8000163,3,Tuttlingen,Baden-Württemberg,Tuttlingen,78532,8.798542,47.980579,2024-07-12 13:55:00,2024-07-12 14:03:00,2024-07-12 13:57:00,2024-07-12 14:08:00,2,5,,on_time,on_time
-5185695367606666233-2407132107-25,1,Düsseldorf Hbf|Düsseldorf Wehrhahn|Düsseldorf-Zoo|Düsseldorf-Derendorf|Düsseldorf-Unterrath|Düsseldorf Flughafen|Angermund|Duisburg-Rahm|Duisburg-Großenbaum|Duisburg-Buchholz|Duisburg-Schlenk|Duisburg Hbf|Mülheim(Ruhr)Styrum|Mülheim(Ruhr)Hbf|Essen-Frohnhausen|Essen West|Essen Hbf|Essen-Steele|Essen-Steele Ost|Essen-Eiberg|Wattenscheid-Höntrop|Bochum-Ehrenfeld|Bochum Hbf|Bochum-Langendreer West,8000358,4,Bochum-Langendreer,Nordrhein-Westfalen,Bochum,44892,7.323645,51.477992,2024-07-13 22:20:00,2024-07-13 22:21:00,2024-07-13 22:20:00,2024-07-13 22:21:00,0,0,Information. (Quelle: zuginfo.nrw),on_time,on_time
8385732764714623624-2407130936-14,RB75,Wiesbaden Hbf|Mainz Hbf|Mainz Römisches Theater|Mainz-Gustavsburg|Mainz-Bischofsheim|Nauheim(b Gr.Gerau)|Groß Gerau|Klein Gerau|Weiterstadt|Darmstadt Hbf|Darmstadt Nord|Darmstadt-Kranichstein|Messel,8000362,4,Dieburg,Hessen,Dieburg,64807,8.839795,49.90369,2024-07-13 10:48:00,2024-07-13 10:49:00,2024-07-13 10:48:00,2024-07-13 10:49:00,0,0,,on_time,on_time
-3022599497773762713-2407140916-11,33,Essen Hbf|Essen West|Mülheim(Ruhr)Hbf|Mülheim(Ruhr)Styrum|Duisburg Hbf|Duisburg-Hochfeld Süd|Rheinhausen Ost|Rheinhausen|Krefeld-Hohenbudberg Chempark|Krefeld-Uerdingen,8003426,5,Krefeld-Linn,Nordrhein-Westfalen,Krefeld,47809,6.629668,51.337305,2024-07-14 09:52:00,2024-07-14 09:53:00,2024-07-14 09:52:00,2024-07-14 09:53:00,0,0,,on_time,on_time
-2537705016160236214-2407131108-11,3,Hamburg-Neugraben|Hamburg Neuwiedenthal|Hamburg-Heimfeld|Hamburg-Harburg Rathaus|Hamburg-Harburg(S)|Hamburg-Wilhelmsburg|Hamburg-Veddel|Hamburg Elbbrücken|Hamburg-Hammerbrook|Hamburg Hbf (S-Bahn),8003137,4,Jungfernstieg,Hamburg,Hamburg,20095,9.993883,53.552194,2024-07-13 11:38:00,2024-07-13 11:39:00,,,0,0,Information,on_time,on_time
-463623226820180166-2407080423-27,2,Bernau (S)|Bernau-Friedenstal|Zepernick(Bernau)|Röntgental|Berlin-Buch|Berlin-Karow|Berlin-Blankenburg|Berlin-Pankow-Heinersdorf|Berlin-Pankow|Berlin Bornholmer Str.|Berlin Gesundbrunnen(S)|Berlin Humboldthain|Berlin Nordbahnhof|Berlin Oranienburger Straße|Berlin Friedrichstraße (S)|Berlin Brandenburger Tor|Berlin Potsdamer Platz (S)|Berlin Anhalter Bf|Berlin Yorckstr.(S2)|Berlin Südkreuz (S)|Berlin Priesterweg|Berlin Attilastr.|Berlin-Marienfelde|Berlin Buckower Chaussee|Berlin Schichauweg|Berlin-Lichtenrade,8080970,5,Mahlow,Brandenburg,Mahlow,15831,13.407932,52.36054,2024-07-08 05:32:00,2024-07-08 05:33:00,2024-07-08 05:33:00,2024-07-08 05:34:00,1,1,,on_time,on_time
6370181409192856816-2407102326-6,55,Ulm Hbf|Ulm-Söflingen|Blaustein|Herrlingen|Gerhausen,8001013,5,Blaubeuren,Baden-Württemberg,Blaubeuren,89143,9.791979,48.403815,2024-07-10 23:43:00,2024-07-10 23:44:00,2024-07-10 23:44:00,2024-07-10 23:45:00,1,1,,on_time,on_time
3163661306156427936-2407121856-9,3,Holzkirchen|Otterfing|Sauerlach|Deisenhofen|Furth(b Deisenhofen)|Taufkirchen|Unterhaching|Fasanenpark,8004146,5,München-Fasangarten,Bayern,München,81549,11.606009,48.092746,2024-07-12 19:20:00,2024-07-12 19:21:00,2024-07-12 19:25:00,2024-07-12 19:25:00,5,4,Bauarbeiten,on_time,on_time
-8265053306569567291-2407140150-10,8,Berlin-Grünau|Berlin-Adlershof|Berlin-Johannisthal|Berlin-Schöneweide (S)|Berlin Baumschulenweg|Berlin Plänterwald|Berlin Treptower Park|Berlin Ostkreuz (S)|Berlin Frankfurter Allee,8089041,4,Storkower Straße,Berlin,Berlin,10369,13.464398,52.52391,2024-07-14 02:13:00,2024-07-14 02:14:00,2024-07-14 02:13:00,2024-07-14 02:14:00,0,0,,on_time,on_time
-5008509791274086733-2407081602-6,6,Zorneding|Baldham|Vaterstetten|Haar|Gronsdorf,8004162,4,München-Trudering,Bayern,München,81825,11.663375,48.126066,2024-07-08 16:15:00,2024-07-08 16:15:00,2024-07-08 16:15:00,2024-07-08 16:16:00,0,1,Bauarbeiten,on_time,on_time
-1746462638726228908-2407080906-1,1,,8000080,1,Dortmund Hbf,Nordrhein-Westfalen,Dortmund,44137,7.45929,51.517896,,2024-07-08 09:06:00,,2024-07-08 09:06:00,0,0,Information. (Quelle: zuginfo.nrw),on_time,on_time
-4614784141080403506-2407081918-22,20,Uelzen|Stederdorf(Kr Uelzen)|Wieren|Soltendieck|Schnega|Salzwedel|Pretzier(Altm)|Fleetmark|Brunau-Packebusch|Hohenwulsch|Kläden(Stendal)|Stendal Hbf|Tangerhütte|Zielitz Ort|Wolmirstedt|Magdeburg-Rothensee|Magdeburg-Eichenweiler|Magdeburg-Neustadt|Magdeburg Hbf|Magdeburg Hasselbachplatz|Magdeburg-Buckau,8013485,5,Magdeburg SKET Industriepark,Sachsen-Anhalt,Magdeburg,39104,11.638277,52.097545,2024-07-08 21:22:00,2024-07-08 21:23:00,2024-07-08 21:26:00,2024-07-08 21:27:00,4,4,,on_time,on_time
1287744174963220834-2407110854-25,8,Wildau|Zeuthen|Eichwalde|Berlin-Grünau|Berlin-Adlershof|Berlin-Johannisthal|Berlin-Schöneweide (S)|Berlin Baumschulenweg|Berlin Plänterwald|Berlin Treptower Park|Berlin Ostkreuz (S)|Berlin Frankfurter Allee|Berlin Storkower Str|Berlin Landsberger Allee|Berlin Greifswalder Str|Berlin Prenzlauer Allee|Berlin Schönhauser Allee|Berlin Bornholmer Str.|Berlin-Pankow|Berlin-Pankow-Heinersdorf|Berlin-Blankenburg|Mühlenbeck-Mönchmühle|Schönfließ(b Oranienburg)|Bergfelde(b Berlin),8080720,5,Hohen Neuendorf (b Berlin),Brandenburg,Hohen Neuendorf,16540,13.287091,52.669072,2024-07-11 10:10:00,2024-07-11 10:13:00,2024-07-11 10:10:00,2024-07-11 10:13:00,0,0,,on_time,on_time
-6363091851949774767-2407091124-2,200,Wendlingen(Neckar),8003983,5,Merklingen - Schwäbische Alb,Baden-Württemberg,Merklingen,89188,9.740877,48.52116,2024-07-09 11:38:00,2024-07-09 11:39:00,2024-07-09 11:38:00,2024-07-09 11:39:00,0,0,,on_time,on_time
-5817753767787077907-2407111255-3,4,Marbach(Neckar)|Benningen(Neckar),8002065,5,Freiberg (Neckar),Baden-Württemberg,Freiberg am Neckar,71691,9.197796,48.930107,2024-07-11 13:00:00,2024-07-11 13:01:00,2024-07-11 13:00:00,2024-07-11 13:01:00,0,0,Information,on_time,on_time
-4789600534025880651-2407101907-8,11,Hamm(Westf)Hbf|Soest|Lippstadt|Paderborn Hbf|Altenbeken|Willebadessen|Warburg(Westf),8002933,4,Hofgeismar,Hessen,Hofgeismar,34369,9.395461,51.499186,2024-07-10 20:38:00,2024-07-10 20:38:00,2024-07-10 20:38:00,2024-07-10 20:38:00,0,0,,on_time,on_time
5577994091699556256-2407130835-7,26,Teltow Stadt|Berlin-Lichterfelde Süd|Berlin Osdorfer Straße|Berlin-Lichterfelde Ost (S)|Berlin-Lankwitz|Berlin Südende,8089034,4,Priesterweg,Berlin,Berlin,12157,13.356281,52.459914,2024-07-13 08:48:00,2024-07-13 08:49:00,,,0,0,,on_time,on_time
-5946106727358174457-2407132253-30,11,Bergisch Gladbach|Duckterath|Köln-Dellbrück|Köln-Holweide|Köln-Mülheim|Köln-Buchforst|Köln Messe/Deutz|Köln Hbf|Köln Hansaring|Köln-Nippes|Köln Geldernstr./Parkgürtel|Köln-Longerich|Köln Volkhovener Weg|Köln-Chorweiler|Köln-Chorweiler Nord|Köln-Blumenberg|Köln-Worringen|Dormagen Chempark|Dormagen|Nievenheim|Neuss Allerheiligen|Norf|Neuss Süd|Neuss Hbf|Neuss Am Kaiser|Neuss Rheinparkcenter|Düsseldorf-Hamm|Düsseldorf Völklinger Str.|Düsseldorf-Bilk,8001579,5,Düsseldorf-Friedrichstadt,Nordrhein-Westfalen,Düsseldorf,40215,6.78905725,51.2119748,2024-07-14 00:18:00,2024-07-14 00:19:00,2024-07-14 00:19:00,2024-07-14 00:19:00,1,0,Information. (Quelle: zuginfo.nrw),on_time,on_time
-6342999213792240687-2407141439-33,30,Zwickau(Sachs)Hbf|Zwickau-Pölbitz|Oberrothenbach|Mosel|Glauchau-Schönbörnchen|Glauchau(Sachs)|St Egidien|Hohenstein-Ernstthal|Wüstenbrand|Grüna(Sachs)Hp|Chemnitz-Siegmar|Chemnitz-Schönau|Chemnitz Mitte|Chemnitz Süd|Chemnitz Hbf|Chemnitz-Hilbersdorf|Niederwiesa|Flöha|Falkenau(Sachs)Süd|Oederan|Frankenstein(Sachs)|Kleinschirma|Freiberg(Sachs)|Muldenhütten|Niederbobritzsch|Klingenberg-Colmnitz|Edle Krone|Tharandt|Freital-Hainsberg West|Freital-Hainsberg|Freital-Deuben|Freital-Potschappel,8013476,5,Dresden-Plauen,Sachsen,Dresden,1187,13.70317,51.02963,2024-07-14 16:46:00,2024-07-14 16:46:00,2024-07-14 16:46:00,2024-07-14 16:46:00,0,0,,on_time,on_time
-7747967594214147850-2407100417-4,1,Hamm(Westf)Hbf|Bönen-Nordbögge|Kamen,8003169,5,Kamen-Methler,Nordrhein-Westfalen,Kamen-Methler,59174,7.613056,51.567379,2024-07-10 04:31:00,2024-07-10 04:32:00,2024-07-10 04:31:00,2024-07-10 04:32:00,0,0,,on_time,on_time
-8934350920934651666-2407091408-7,8,Wuppertal-Oberbarmen|Wuppertal-Barmen|Wuppertal-Unterbarmen|Wuppertal Hbf|Wuppertal-Steinbeck|Wuppertal-Zoologischer Garten,8006618,4,Wuppertal-Sonnborn,Nordrhein-Westfalen,Wuppertal,42327,7.096575,51.240584,2024-07-09 14:24:00,2024-07-09 14:25:00,2024-07-09 14:26:00,2024-07-09 14:26:00,2,1,Information. (Quelle: zuginfo.nrw),on_time,on_time
6976354855138603276-2407121050-23,2,Roth|Büchenbach|Rednitzhembach|Schwabach|Schwabach-Limbach|Katzwang|Reichelsdorfer Keller|Nürnberg-Reichelsdorf|Nürnberg-Eibach|Nürnberg-Sandreuth|Nürnberg-Steinbühl|Nürnberg Hbf|Nürnberg-Dürrenhof|Nürnberg Ostring|Nürnberg-Mögeldorf|Nürnberg-Rehhof|Nürnberg-Laufamholz|Schwaig|Röthenbach(Pegnitz)|Röthenbach-Steinberg|Röthenbach-Seespitze|Lauf West,8003580,5,Lauf (links Pegnitz),Bayern,Lauf a. d. Pegnitz,91207,11.285976,49.507097,2024-07-12 11:43:00,2024-07-12 11:44:00,2024-07-12 11:44:00,2024-07-12 11:44:00,1,0,,on_time,on_time
-3063390869931412175-2407121700-15,3,Stuttgart-Vaihingen|Stuttgart-Österfeld|Stuttgart Universität|Stuttgart Schwabstr.|Stuttgart Feuersee|Stuttgart Stadtmitte|Stuttgart Hbf (tief)|Stuttgart-Bad Cannstatt|Stuttgart Nürnberger Str.|Stuttgart-Sommerrain|Fellbach|Waiblingen|Neustadt-Hohenacker|Schwaikheim,8006479,3,Winnenden,Baden-Württemberg,Winnenden,71364,9.39229,48.879583,2024-07-12 17:39:00,2024-07-12 17:39:00,2024-07-12 17:42:00,2024-07-12 17:43:00,3,4,Information,on_time,on_time
-8523224883904523150-2407141609-32,5,Strausberg Nord|Strausberg Stadt|Strausberg-Hegermühle|Strausberg (S)|Petershagen Nord|Fredersdorf(b Berlin)|Neuenhagen(b Berlin)|Hoppegarten(Mark)|Birkenstein|Berlin-Mahlsdorf (S)|Berlin-Kaulsdorf|Berlin Wuhletal|Berlin-Biesdorf|Berlin-Friedrichsfelde Ost|Berlin-Lichtenberg (S)|Berlin Nöldnerplatz|Berlin Ostkreuz (S)|Berlin Warschauer Straße|Berlin Ostbahnhof (S)|Berlin Jannowitzbrücke|Berlin Alexanderplatz (S)|Berlin Hackescher Markt|Berlin Friedrichstraße (S)|Berlin Hbf (S-Bahn)|Berlin Bellevue|Berlin-Tiergarten|Berlin Zoologischer Garten (S)|Berlin Savignyplatz|Berlin Charlottenburg (S)|Berlin Westkreuz|Berlin Messe Süd (Eichkamp),8089329,5,Heerstraße,Berlin,Berlin,14055,13.259379,52.508121,2024-07-14 17:33:00,2024-07-14 17:34:00,2024-07-14 17:33:00,,0,0,,on_time,on_time
-2949440726131702047-2407140914-8,RE30,Wolfsburg Hbf|Fallersleben|Calberlah|Gifhorn|Leiferde(b Gifhorn)|Meinersen|Dedenhausen,8001492,5,Dollbergen,Niedersachsen,Uetze,31311,10.181657,52.417153,2024-07-14 09:49:00,2024-07-14 09:50:00,2024-07-14 09:49:00,2024-07-14 09:50:00,0,0,,on_time,on_time
-6499790020390525735-2407082218-11,2,Schorndorf|Weiler(Rems)|Winterbach(b Schorndorf)|Geradstetten|Grunbach|Beutelsbach|Endersbach|Stetten-Beinstein|Rommelshausen|Waiblingen,8001974,3,Fellbach,Baden-Württemberg,Fellbach,70736,9.269978,48.820049,2024-07-08 22:42:00,2024-07-08 22:43:00,2024-07-08 22:42:00,2024-07-08 22:43:00,0,0,Information,on_time,on_time
7240286260864349742-2407080500-8,41,Mosbach(Baden)|Mosbach West|Mosbach-Neckarelz|Neckarzimmern|Haßmersheim|Gundelsheim(Neckar)|Offenau,8000017,3,Bad Friedrichshall Hbf,Baden-Württemberg,Bad Friedrichshall,74177,9.199771,49.231571,2024-07-08 05:28:00,2024-07-08 05:29:00,2024-07-08 05:28:00,2024-07-08 05:29:00,0,0,,on_time,on_time
-1075998332512760178-2407101607-17,1,Bamberg|Strullendorf|Hirschaid|Buttenheim|Eggolsheim|Forchheim(Oberfr)|Kersbach|Baiersdorf|Bubenreuth|Erlangen|Erlangen Paul-Gossen-Straße|Erlangen-Bruck|Eltersdorf|Vach|Fürth-Klinikum|Fürth(Bay)Hbf,8004473,5,Nürnberg Rothenburger Straße,Bayern,Nürnberg,90443,11.055338,49.4454,2024-07-10 17:03:00,2024-07-10 17:04:00,2024-07-10 17:35:00,2024-07-10 17:36:00,32,32,Information,delay,delay
-7665759058170158097-2407121553-3,48,München Ost|Grafing Bahnhof,8002348,5,Grafing Stadt,Bayern,Grafing,85567,11.962758,48.047217,2024-07-12 16:16:00,2024-07-12 16:17:00,2024-07-12 16:24:00,2024-07-12 16:25:00,8,8,,delay,delay
3819924170144368318-2407132053-13,6,Frankfurt(Main)Süd|Frankfurt(M)Lokalbahnhof|Frankfurt(M)Ostendstraße|Frankfurt(M)Konstablerwache|Frankfurt(M)Hauptwache|Frankfurt(M)Taunusanlage|Frankfurt Hbf (tief)|Frankfurt(M)Galluswarte|Frankfurt(Main)Messe|Frankfurt(Main)West|Frankfurt-Eschersheim|Frankfurt-Frankfurter Berg,8002043,5,Frankfurt-Berkersheim,Hessen,Frankfurt am Main,60435,8.697827,50.176486,2024-07-13 21:19:00,2024-07-13 21:19:00,2024-07-13 21:19:00,2024-07-13 21:19:00,0,0,,on_time,on_time
3196709793421788469-2407100833-15,18,Tübingen Hbf|Reutlingen Hbf|Metzingen(Württ)|Nürtingen|Wendlingen(Neckar)|Plochingen|Esslingen(Neckar)|Stuttgart-Bad Cannstatt|Stuttgart Hbf|Ludwigsburg|Bietigheim-Bissingen|Besigheim|Walheim(Württ)|Kirchheim(Neckar),8003588,4,Lauffen (Neckar),Baden-Württemberg,Lauffen (Neckar),74348,9.146136,49.076514,2024-07-10 10:15:00,2024-07-10 10:16:00,2024-07-10 10:36:00,2024-07-10 10:37:00,21,21,,delay,delay
-5089838934529415105-2407131910-7,9,Siegen Hbf|Brachbach|Kirchen|Betzdorf(Sieg)|Wissen(Sieg)|Au(Sieg),8005356,5,Schladern (Sieg),Nordrhein-Westfalen,Windeck,51570,7.592264,50.807006,2024-07-13 19:48:00,2024-07-13 19:49:00,2024-07-13 19:48:00,2024-07-13 19:49:00,0,0,Information. (Quelle: zuginfo.nrw),on_time,on_time
-5651251686185735683-2407111410-2,40,Karlsruhe Hbf,8000306,3,Rastatt,Baden-Württemberg,Rastatt,76437,8.215623,48.860483,2024-07-11 14:28:00,2024-07-11 14:29:00,2024-07-11 14:28:00,2024-07-11 14:29:00,0,0,,on_time,on_time
-3485382270337726137-2407111631-13,9,Hanau Hbf|Steinheim(Main)|Mühlheim(Main)-Dietesheim|Mühlheim(Main)|Offenbach(Main)Ost|Offenbach(Main) Marktplatz|Offenbach(Main) Ledermuseum|Offenbach(Main) Kaiserlei|Frankfurt(M)Mühlberg|Frankfurt(M)Ostendstraße|Frankfurt(M)Konstablerwache|Frankfurt(M)Hauptwache,8006691,3,Frankfurt (Main) Taunusanlage,Hessen,Frankfurt am Main,60325,8.668864,50.113565,2024-07-11 16:59:00,2024-07-11 16:59:00,2024-07-11 16:59:00,2024-07-11 17:00:00,0,1,,on_time,on_time
-8799412794156915553-2407132210-10,30,Nürnberg Hbf|Nürnberg Ost|Nürnberg-Erlenstegen|Behringersdorf|Rückersdorf(Mfr)|Ludwigshöhe|Lauf(rechts Pegnitz)|Neunkirchen a Sand|Reichenschwand,8002794,4,Hersbruck (rechts Pegnitz),Bayern,Hersbruck,91217,11.423826,49.510073,2024-07-13 22:41:00,2024-07-13 22:42:00,2024-07-13 22:42:00,2024-07-13 22:43:00,1,1,,on_time,on_time
-7180732407212007709-2407091545-3,RB66,Darmstadt Hbf|Darmstadt Süd,8001379,5,Darmstadt-Eberstadt,Hessen,Darmstadt,64297,8.62582,49.813922,2024-07-09 15:57:00,2024-07-09 15:57:00,,,0,0,,on_time,on_time
-3512869889688564819-2407142150-23,6,Düsseldorf-Rath Mitte|Düsseldorf-Derendorf|Düsseldorf-Zoo|Düsseldorf Wehrhahn|Düsseldorf Hbf|Düsseldorf Volksgarten|Düsseldorf-Oberbilk|Düsseldorf-Eller Süd|Düsseldorf-Reisholz|Düsseldorf-Benrath|Düsseldorf-Garath|Düsseldorf-Hellerhof|Langenfeld(Rhld)-Berghausen|Langenfeld(Rhld)|Leverkusen-Rheindorf|Leverkusen-Küppersteg|Leverkusen Mitte|Leverkusen Chempark|Köln-Stammheim|Köln-Mülheim|Köln-Buchforst|Köln Messe/Deutz,8000207,1,Köln Hbf,Nordrhein-Westfalen,Köln,50667,6.958729,50.94303,2024-07-14 22:53:00,2024-07-14 22:54:00,2024-07-14 22:53:00,2024-07-14 22:54:00,0,0,Bauarbeiten. (Quelle: zuginfo.nrw),on_time,on_time
8590687969994925336-2407111832-9,46,Frankenthal Hbf|Frankenthal Süd|Flomersheim|Lambsheim|Weisenheim(Sand)|Freinsheim|Herxheim am Berg|Kirchheim(Weinstr),8000137,4,Grünstadt,Rheinland-Pfalz,Grünstadt,67269,8.167962,49.564384,2024-07-11 18:59:00,2024-07-11 19:01:00,2024-07-11 19:04:00,2024-07-11 19:05:00,5,4,,on_time,on_time
-5034390762302503184-2407091010-5,9,Siegen Hbf|Brachbach|Kirchen|Betzdorf(Sieg),8006501,5,Wissen (Sieg),Rheinland-Pfalz,Wissen ,57537,7.739814,50.782871,2024-07-09 10:37:00,2024-07-09 10:38:00,2024-07-09 10:37:00,2024-07-09 10:38:00,0,0,Information. (Quelle: zuginfo.nrw),on_time,on_time
-2436583527252544335-2407092207-18,1,Hamburg-Blankenese|Hamburg Hochkamp|Hamburg Klein Flottbek|Hamburg-Othmarschen|Hamburg-Bahrenfeld|Hamburg-Ottensen|Hamburg-Altona(S)|Hamburg Königstraße|Hamburg Reeperbahn|Hamburg Landungsbrücken|Hamburg Stadthausbrücke|Hamburg Jungfernstieg|Hamburg Hbf (S-Bahn)|Hamburg Berliner Tor|Hamburg Landwehr|Hamburg Hasselbrook|Hamburg Wandsbeker Chaussee,8002106,4,Friedrichsberg,Hamburg,Hamburg,22049,10.057433,53.576328,2024-07-09 22:44:00,2024-07-09 22:45:00,,,0,0,,on_time,on_time
-103011914163194438-2407101012-23,2,Petershausen(Obb)|Vierkirchen-Esterhofen|Röhrmoos|Hebertshausen|Dachau Bahnhof|München-Karlsfeld|München-Allach|München-Untermenzing|München-Obermenzing|München-Laim|München Hirschgarten|München Donnersbergerbrücke|München Hackerbrücke|München Hbf (tief)|München Karlsplatz|München Marienplatz|München Isartor|München Rosenheimer Platz|München Ost|München Leuchtenbergring|München-Berg am Laim|München-Riem,8001973,5,Feldkirchen (b München),Bayern,Feldkirchen,85622,11.732103,48.151846,2024-07-10 11:12:00,2024-07-10 11:12:00,2024-07-10 11:14:00,2024-07-10 11:14:00,2,2,Bauarbeiten,on_time,on_time
-7487024676631574415-2407120552-9,2,Hamburg-Altona(S)|Hamburg Holstenstraße|Hamburg-Sternschanze|Hamburg Dammtor|Hamburg Hbf (S-Bahn)|Hamburg Berliner Tor|Hamburg-Rothenburgsort|Hamburg-Tiefstack,8000971,5,Billwerder-Moorfleet,Hamburg,Hamburg,22113,10.096658,53.515589,2024-07-12 06:15:00,2024-07-12 06:15:00,2024-07-12 06:15:00,2024-07-12 06:15:00,0,0,,on_time,on_time
-3665725798087494381-2407110650-31,42,Öhringen-Cappel|Öhringen Hbf|Öhringen West|Bitzfeld|Bretzfeld|Scheppach|Wieslensdorf|Eschenau(b Heilbronn)|Affaltrach|Willsbach|Sülzbach Schule|Sülzbach|Ellhofen|Weinsberg/Ellhofen Gewerbegebiet|Weinsberg|Heilbronn Pfühlpark|Heilbronn Finanzamt|Heilbronn Friedensplatz|Heilbronn Harmonie|Heilbronn Harmonie/Kunsthalle|Heilbronn Theater|Heilbronn Technisches Schulzentrum|Heilbronn Industrieplatz|Heilbronn Hans-Rießer-Straße|Heilbronn Kaufland|Neckarsulm Süd|Neckarsulm|Neckarsulm Mitte|Neckarsulm Nord|Bad Friedrichshall-Kochendorf,8000017,3,Bad Friedrichshall Hbf,Baden-Württemberg,Bad Friedrichshall,74177,9.199771,49.231571,2024-07-11 08:05:00,2024-07-11 08:06:00,2024-07-11 08:05:00,2024-07-11 08:06:00,0,0,,on_time,on_time
6107145521863433739-2407122248-20,3,Stuttgart Flughafen/Messe|Echterdingen|Leinfelden|Oberaichen|Stuttgart-Rohr|Stuttgart-Vaihingen|Stuttgart-Österfeld|Stuttgart Universität|Stuttgart Schwabstr.|Stuttgart Feuersee|Stuttgart Stadtmitte|Stuttgart Hbf (tief)|Stuttgart-Bad Cannstatt|Stuttgart Nürnberger Str.|Stuttgart-Sommerrain|Fellbach|Waiblingen|Neustadt-Hohenacker|Schwaikheim,8006479,3,Winnenden,Baden-Württemberg,Winnenden,71364,9.39229,48.879583,2024-07-12 23:39:00,2024-07-12 23:39:00,2024-07-12 23:39:00,2024-07-12 23:39:00,0,0,Information,on_time,on_time
7608028257592331283-2407101204-12,60,Böblingen|Sindelfingen|Maichingen|Maichingen Nord|Magstadt|Renningen Süd|Renningen|Rutesheim|Leonberg|Höfingen|Ditzingen,8006268,5,Stuttgart-Weilimdorf,Baden-Württemberg,Stuttgart,70499,9.094328,48.82208,2024-07-10 12:41:00,2024-07-10 12:41:00,2024-07-10 12:41:00,2024-07-10 12:42:00,0,1,Information,on_time,on_time
2520327480678018747-2407080608-28,3,Berlin-Spandau (S)|Berlin-Stresow|Berlin-Pichelsberg|Berlin Olympiastadion|Berlin Heerstraße|Berlin Messe Süd (Eichkamp)|Berlin Westkreuz|Berlin Charlottenburg (S)|Berlin Savignyplatz|Berlin Zoologischer Garten (S)|Berlin-Tiergarten|Berlin Bellevue|Berlin Hbf (S-Bahn)|Berlin Friedrichstraße (S)|Berlin Hackescher Markt|Berlin Alexanderplatz (S)|Berlin Jannowitzbrücke|Berlin Ostbahnhof (S)|Berlin Warschauer Straße|Berlin Ostkreuz (S)|Berlin-Rummelsburg|Berlin Betriebsbf Rummelsburg|Berlin-Karlshorst (S)|Berlin-Wuhlheide|Berlin-Köpenick|Berlin-Hirschgarten|Berlin-Friedrichshagen,8089082,5,Rahnsdorf,Berlin,Berlin,12589,13.690405,52.451536,2024-07-08 07:15:00,2024-07-08 07:15:00,2024-07-08 07:15:00,2024-07-08 07:15:00,0,0,,on_time,on_time
5784128552171253367-2407090804-5,2,Cottbus Hbf|Kolkwitz|Vetschau|Raddusch,8010220,4,Lübbenau (Spreewald),Brandenburg,Lübbenau ,3222,13.9609,51.862169,2024-07-09 08:26:00,2024-07-09 08:27:00,2024-07-09 08:29:00,2024-07-09 08:30:00,3,3,,on_time,on_time
-6481915399608012038-2407081726-12,49,Wesel|Friedrichsfeld(Niederrhein)|Voerde(Niederrhein)|Dinslaken|Oberhausen-Holten|Oberhausen-Sterkrade|Oberhausen Hbf|Mülheim(Ruhr)Styrum|Mülheim(Ruhr)Hbf|Essen West|Essen Hbf,8000099,4,Essen-Steele,Nordrhein-Westfalen,Essen,45276,7.075552,51.450684,2024-07-08 18:17:00,2024-07-08 18:18:00,2024-07-08 18:18:00,2024-07-08 18:19:00,1,1,,on_time,on_time
2416755548517398464-2407081814-1,3,,8000284,1,Nürnberg Hbf,Bayern,Nürnberg,90443,11.082989,49.445616,,2024-07-08 18:14:00,,2024-07-08 18:14:00,0,0,,on_time,on_time
-6837599455394296334-2407080024-1,12,,8000208,3,Köln-Ehrenfeld,Nordrhein-Westfalen,Köln,50823,6.917276,50.951533,,2024-07-08 00:24:00,,2024-07-08 00:24:00,0,0,,on_time,on_time
-2683882177421185765-2407040613-5,48,Wuppertal-Oberbarmen|Wuppertal-Barmen|Wuppertal Hbf|Wuppertal-Vohwinkel,8000138,4,Haan-Gruiten,Nordrhein-Westfalen,Haan-Gruiten,42781,7.010546,51.214559,2024-07-11 06:29:00,2024-07-11 06:30:00,2024-07-11 06:29:00,2024-07-11 06:30:00,0,0,Bauarbeiten. (Quelle: zuginfo.nrw),on_time,on_time
4606705130131250656-2407101237-1,48,,8010118,5,Fröttstädt,Thüringen,Fröttstädt,99880,10.573019,50.930357,,2024-07-10 12:37:00,,2024-07-10 12:37:00,0,0,,on_time,on_time
3243714552827338436-2407100739-14,9,Mannheim Hbf|Mannheim-Neckarau|Mannheim-Rheinau|Schwetzingen-Hirschacker|Schwetzingen|Oftersheim|Hockenheim|Neulußheim|Waghäusel|Wiesental|Graben-Neudorf|Friedrichstal(Baden)|Blankenloch,8003185,5,Karlsruhe-Hagsfeld,Baden-Württemberg,Karlsruhe - Hagsfeld,76139,8.453645,49.025938,2024-07-10 08:29:00,2024-07-10 08:29:00,2024-07-10 08:29:00,2024-07-10 08:29:00,0,0,Störung,on_time,on_time
-4160940555088176113-2407080638-2,23,Limburg(Lahn),8001457,5,Diez,Rheinland-Pfalz,Diez,65682,8.01962,50.370127,2024-07-08 06:42:00,2024-07-08 06:42:00,,,0,0,,on_time,on_time
-8099585508859254930-2407110833-10,5,Hamburg Elbgaustraße|Hamburg-Eidelstedt|Hamburg-Stellingen|Hamburg-Langenfelde|Hamburg Holstenstraße|Hamburg-Sternschanze|Hamburg Dammtor|Hamburg Hbf (S-Bahn)|Hamburg-Hammerbrook,8002551,4,Elbbrücken,Hamburg,Hamburg,20457,10.0246596,53.534824,2024-07-11 08:57:00,2024-07-11 08:57:00,,,0,0,Information,on_time,on_time
2673953269417189521-2407141935-3,22,Trier Hbf|Pfalzel,8000370,5,Ehrang,Rheinland-Pfalz,Trier-Ehrang,54293,6.685808,49.802029,2024-07-14 19:43:00,2024-07-14 19:43:00,,,0,0,Störung. (Quelle: zuginfo.nrw),on_time,on_time
-2414641296035801632-2407131033-6,28,Mettmann Stadtwald|Mettmann Zentrum|Neanderthal|Erkrath-Nord|Düsseldorf-Gerresheim,8001598,5,Düsseldorf-Flingern,Nordrhein-Westfalen,Düsseldorf,40235,6.81028426,51.2262413,2024-07-13 10:52:00,2024-07-13 10:53:00,2024-07-13 10:52:00,2024-07-13 10:53:00,0,0,Störung. (Quelle: zuginfo.nrw),on_time,on_time
901700373863485804-2407081948-17,8,Wiesbaden Hbf|Wiesbaden Ost|Mainz Nord|Mainz Hbf|Mainz Römisches Theater|Mainz-Gustavsburg|Mainz-Bischofsheim|Rüsselsheim Opelwerk|Rüsselsheim|Raunheim|Kelsterbach|Frankfurt(M) Flughafen Regionalbf|Frankfurt(Main)-Gateway Gardens|Frankfurt am Main - Stadion|Frankfurt-Niederrad|Frankfurt Hbf (tief),8006691,3,Frankfurt (Main) Taunusanlage,Hessen,Frankfurt am Main,60325,8.668864,50.113565,2024-07-08 20:46:00,2024-07-08 20:46:00,2024-07-08 20:46:00,2024-07-08 20:46:00,0,0,Störung,on_time,on_time
-3580917122362304390-2407091209-2,20,Leipzig Hbf,8012193,4,Leipzig-Möckern,Sachsen,Leipzig,4155,12.352271,51.364431,2024-07-09 12:14:00,2024-07-09 12:14:00,2024-07-09 12:14:00,2024-07-09 12:14:00,0,0,,on_time,on_time
-4498115401167260933-2407140511-1,3,,8010397,3,Zwickau (Sachs) Hbf,Sachsen,Zwickau ,8056,12.474716,50.714668,,2024-07-14 05:11:00,,2024-07-14 05:11:00,0,0,,on_time,on_time
-9091089088185302751-2407131138-4,46,Berlin Westend|Berlin Messe Nord/ICC (Witzleben)|Berlin Westkreuz,8089109,4,Berlin-Halensee,Berlin,Berlin,10711,13.290326,52.496254,2024-07-13 11:43:00,2024-07-13 11:43:00,,,0,0,,on_time,on_time
5756649881656128760-2407040439-20,26,Bingen(Rhein) Hbf|Trechtingshausen|Niederheimbach|Bacharach|Oberwesel|St Goar|Boppard-Hirzenach|Boppard-Bad Salzig|Boppard Hbf|Spay|Rhens|Koblenz Hbf|Koblenz Stadtmitte|Koblenz-Lützel|Mülheim-Kärlich|Weißenthurm|Andernach|Namedy|Brohl,8000694,5,Bad Breisig,Rheinland-Pfalz,Bad Breisig,53498,7.304564,50.504218,2024-07-11 05:55:00,2024-07-11 05:55:00,2024-07-11 06:00:00,2024-07-11 06:00:00,5,5,Bauarbeiten. (Quelle: zuginfo.nrw),on_time,on_time
2120102657208436969-2407142047-2,RB15,Ulm Hbf,8006730,4,Neu-Ulm,Bayern,Neu Ulm,89231,10.004823,48.393039,2024-07-14 20:50:00,2024-07-14 20:50:00,2024-07-14 20:50:00,2024-07-14 20:50:00,0,0,,on_time,on_time
-1714093883860050258-2407080432-26,2,Mosbach(Baden)|Mosbach West|Mosbach-Neckarelz|Binau|Neckargerach|Zwingenberg(Baden)|Lindach|Eberbach|Hirschhorn(Neckar)|Neckarhausen bei Neckarsteinach|Neckarsteinach|Neckargemünd Altstadt|Neckargemünd|Heidelberg Orthopädie|Heidelberg-Schlierbach/Ziegelhausen|Heidelberg-Altstadt|Heidelberg-Weststadt/Südstadt|Heidelberg Hbf|Heidelberg-Pfaffengrund/Wieblingen|Mannheim-Friedrichsfeld Süd|Mannheim-Seckenheim|Mannheim ARENA/Maimarkt|Mannheim Hbf|Ludwigshafen(Rhein) Mitte|Ludwigshafen(Rh)Hbf,8003765,5,Ludwigshafen-Mundenheim,Rheinland-Pfalz,Ludwigshafen,67065,8.421092,49.461572,2024-07-08 06:02:00,2024-07-08 06:03:00,2024-07-08 06:07:00,2024-07-08 06:07:00,5,4,,on_time,on_time
2521778129364702113-2407122243-9,1,Wedel(Holst)|Hamburg-Rissen|Hamburg-Sülldorf|Hamburg-Iserbrook|Hamburg-Blankenese|Hamburg Hochkamp|Hamburg Klein Flottbek|Hamburg-Othmarschen,8000780,4,Bahrenfeld,Hamburg,Hamburg,22761,9.910778,53.56006,2024-07-12 23:06:00,2024-07-12 23:06:00,2024-07-12 23:07:00,2024-07-12 23:07:00,1,1,,on_time,on_time
-6675646583218474846-2407111906-4,2,Düsseldorf Hbf|Düsseldorf Flughafen|Duisburg Hbf,8000259,3,Mülheim (Ruhr) Hbf,Nordrhein-Westfalen,Mülheim an der Ruhr,45468,6.88651,51.431342,2024-07-11 19:29:00,2024-07-11 19:30:00,2024-07-11 19:44:00,2024-07-11 19:45:00,15,15,Information,delay,delay
4251767917745632155-2407141718-6,3,Wurzen|Bennewitz|Altenbach|Machern(Sachs)|Gerichshain,8010059,5,Borsdorf (Sachs),Sachsen,Borsdorf ,4451,12.541165,51.345705,2024-07-14 17:33:00,2024-07-14 17:33:00,2024-07-14 17:33:00,2024-07-14 17:34:00,0,1,,on_time,on_time
-6891255670645574867-2407140011-2,RE57,Fröndenberg,8006389,5,Wickede (Ruhr),Nordrhein-Westfalen,Wickede ,58739,7.869713,51.493201,2024-07-14 00:31:00,2024-07-14 00:31:00,,,0,0,,on_time,on_time
-657578417068350480-2407111933-4,RE4,Bremen Hbf|Rotenburg(Wümme)|Tostedt,8000056,3,Buchholz (Nordheide),Niedersachsen,Buchholz i.d.Nordheide,21244,9.876266,53.324683,2024-07-11 20:17:00,2024-07-11 20:19:00,2024-07-11 20:19:00,2024-07-11 20:21:00,2,2,,on_time,on_time
2562667275425192011-2407101552-6,110,Grimma ob Bf|Großsteinberg|Naunhof|Beucha|Borsdorf(Sachs),8011491,5,Leipzig-Engelsdorf,Sachsen,Leipzig,4329,12.477634,51.343946,2024-07-10 16:18:00,2024-07-10 16:18:00,,,0,0,,on_time,on_time
-7495350891771317267-2407121203-31,26,Mainz Hbf|Mainz-Mombach|Budenheim|Uhlerborn|Heidesheim(Rheinhess)|Ingelheim|Gau Algesheim|Bingen-Gaulsheim|Bingen(Rhein) Stadt|Bingen(Rhein) Hbf|Trechtingshausen|Niederheimbach|Bacharach|Oberwesel|St Goar|Boppard-Hirzenach|Boppard-Bad Salzig|Boppard Hbf|Spay|Rhens|Koblenz Hbf|Koblenz Stadtmitte|Koblenz-Lützel|Mülheim-Kärlich|Weißenthurm|Andernach|Namedy|Brohl|Bad Breisig|Sinzig(Rhein),8000310,3,Remagen,Rheinland-Pfalz,Remagen,53424,7.229779,50.577215,2024-07-12 14:04:00,2024-07-12 14:11:00,2024-07-12 14:07:00,2024-07-12 14:14:00,3,3,Bauarbeiten. (Quelle: zuginfo.nrw),on_time,on_time
1490196137164382669-2407121828-11,3,Hamburg-Neugraben|Hamburg Neuwiedenthal|Hamburg-Heimfeld|Hamburg-Harburg Rathaus|Hamburg-Harburg(S)|Hamburg-Wilhelmsburg|Hamburg-Veddel|Hamburg Elbbrücken|Hamburg-Hammerbrook|Hamburg Hbf (S-Bahn),8003137,4,Jungfernstieg,Hamburg,Hamburg,20095,9.993883,53.552194,2024-07-12 18:58:00,2024-07-12 18:59:00,,,0,0,Information,on_time,on_time
2508634733456127546-2407140932-12,12,Templin Stadt|Templin|Hammelspring|Vogelsang(Kr Oberhavel)|Zehdenick-Neuhof|Zehdenick(Mark)|Bergsdorf|Löwenberg(Mark)|Grüneberg|Nassenheide|Sachsenhausen(Nordb),8013487,3,Oranienburg,Brandenburg,Oranienburg,16515,13.249613,52.753653,2024-07-14 10:28:00,2024-07-14 10:30:00,2024-07-14 10:28:00,2024-07-14 10:30:00,0,0,,on_time,on_time
-3199403678964082324-2407090814-17,4,Geltendorf|Türkenfeld|Grafrath|Schöngeising|Buchenau(Oberbay)|Fürstenfeldbruck|Eichenau(Oberbay)|Puchheim|München-Aubing|München Leienfelsstr.|München-Pasing|München-Laim|München Hirschgarten|München Donnersbergerbrücke|München Hackerbrücke|München Hbf (tief),8004132,3,München Karlsplatz,Bayern,München,80331,11.565619,48.139452,2024-07-09 08:58:00,2024-07-09 08:59:00,2024-07-09 09:01:00,2024-07-09 09:01:00,3,2,Bauarbeiten,on_time,on_time
-3872637125496835450-2407101205-3,RB73,Rieseby Schleibrücke Süd|Rieseby,8001654,5,Eckernförde,Schleswig-Holstein,Eckernförde,24340,9.835115,54.4676,2024-07-10 12:18:00,2024-07-10 12:20:00,2024-07-10 12:18:00,2024-07-10 12:20:00,0,0,,on_time,on_time
-5842992503517375798-2407130546-27,1,Herrenberg|Nufringen|Gärtringen|Ehningen(b Böblingen)|Hulb|Böblingen|Goldberg(Württ)|Stuttgart-Rohr|Stuttgart-Vaihingen|Stuttgart-Österfeld|Stuttgart Universität|Stuttgart Schwabstr.|Stuttgart Feuersee|Stuttgart Stadtmitte|Stuttgart Hbf (tief)|Stuttgart-Bad Cannstatt|Stuttgart Neckarpark|Stuttgart-Untertürkheim|Stuttgart-Obertürkheim|Esslingen-Mettingen|Esslingen(Neckar)|Oberesslingen|Esslingen-Zell|Altbach|Plochingen|Wernau(Neckar),8006331,3,Wendlingen (Neckar),Baden-Württemberg,Wendlingen am Neckar,73240,9.373011,48.672961,2024-07-13 07:02:00,2024-07-13 07:03:00,2024-07-13 07:02:00,2024-07-13 07:03:00,0,0,Information,on_time,on_time
2513808730596810182-2407040627-4,3,Friedrichshafen Stadt|Eriskirch|Langenargen,8003432,5,Kressbronn,Baden-Württemberg,Kressbronn,88079,9.598854,47.594239,2024-07-11 06:42:00,2024-07-11 06:43:00,2024-07-11 06:44:00,2024-07-11 06:44:00,2,1,,on_time,on_time
1654406879295519906-2407080636-1,RB81,,8002628,3,Hasselbrook,Hamburg,Hamburg,22089,10.056129,53.564711,,2024-07-08 06:36:00,,,0,0,Information,on_time,on_time
-3655617723199753548-2407091536-3,56,Norddeich Mole|Norddeich,8000800,5,Norden,Niedersachsen,Norden,26506,7.218913,53.588196,2024-07-09 15:44:00,2024-07-09 15:46:00,2024-07-09 15:44:00,2024-07-09 15:46:00,0,0,,on_time,on_time
-8728609104373007727-2407130601-12,RB67,Augsburg-Oberhausen|Augsburg Hbf|Augsburg Haunstetterstraße|Augsburg-Hochzoll|Kissing|Mering-St Afra|Mering|Merching|Schmiechen(Schwab)|Egling|Walleshausen,8000119,3,Geltendorf,Bayern,Geltendorf,82269,11.0374552,48.1059912,2024-07-13 06:58:00,2024-07-13 07:00:00,2024-07-13 06:58:00,2024-07-13 07:00:00,0,0,,on_time,on_time
823528371556953103-2407131939-9,5,Stuttgart Hbf|Esslingen(Neckar)|Plochingen|Göppingen|Geislingen(Steige)|Ulm Hbf|Laupheim West|Biberach(Riß),8000746,5,Bad Schussenried,Baden-Württemberg,Bad Schussenried,88427,9.668497,47.994033,2024-07-13 21:19:00,2024-07-13 21:19:00,2024-07-13 21:19:00,2024-07-13 21:20:00,0,1,,on_time,on_time
7071784964092427025-2407111927-1,6,,8006698,3,Stuttgart Schwabstraße,Baden-Württemberg,Stuttgart,70197,9.156959,48.770255,,2024-07-11 19:27:00,,2024-07-11 19:28:00,0,1,,on_time,on_time
-841066623140977791-2407081432-9,2,Hamburg-Altona(S)|Hamburg Holstenstraße|Hamburg-Sternschanze|Hamburg Dammtor|Hamburg Hbf (S-Bahn)|Hamburg Berliner Tor|Hamburg-Rothenburgsort|Hamburg-Tiefstack,8000971,5,Billwerder-Moorfleet,Hamburg,Hamburg,22113,10.096658,53.515589,2024-07-08 14:55:00,2024-07-08 14:55:00,,,0,0,,on_time,on_time
8491752188424798140-2407102331-1,1,,8004134,4,München Leuchtenbergring,Bayern,München,81677,11.615986,48.13425,,2024-07-10 23:31:00,,2024-07-10 23:31:00,0,0,,on_time,on_time
-2059320719436476166-2407120841-19,7,Ahrensfelde (S)|Berlin Mehrower Allee|Berlin Raoul-Wallenberg-Str.|Berlin-Marzahn|Berlin Poelchaustr.|Berlin Springpfuhl|Berlin-Friedrichsfelde Ost|Berlin-Lichtenberg (S)|Berlin Nöldnerplatz|Berlin Ostkreuz (S)|Berlin Warschauer Straße|Berlin Ostbahnhof (S)|Berlin Jannowitzbrücke|Berlin Alexanderplatz (S)|Berlin Hackescher Markt|Berlin Friedrichstraße (S)|Berlin Hbf (S-Bahn)|Berlin Bellevue,8089091,4,Tiergarten,Berlin,Berlin,10557,13.336392,52.514061,2024-07-12 09:21:00,2024-07-12 09:21:00,2024-07-12 09:24:00,2024-07-12 09:24:00,3,3,,on_time,on_time
-468361757453922316-2407131623-3,S3,Schifferstadt|Schifferstadt Süd,8005628,4,Speyer Hbf,Rheinland-Pfalz,Speyer,67346,8.427949,49.324119,2024-07-13 16:39:00,2024-07-13 16:39:00,,,0,0,Information,on_time,on_time
-7234128127155025168-2407132334-32,1,Berlin-Wannsee (S)|Berlin-Nikolassee|Berlin-Schlachtensee|Berlin Mexikoplatz|Berlin-Zehlendorf|Berlin Sundgauer Str|Berlin-Lichterfelde West|Berlin Botanischer Garten|Berlin Rathaus Steglitz|Berlin Feuerbachstr.|Berlin-Friedenau|Berlin-Schöneberg|Berlin Julius-Leber-Brücke|Berlin Yorckstr.(S1)|Berlin Anhalter Bf|Berlin Potsdamer Platz (S)|Berlin Brandenburger Tor|Berlin Friedrichstraße (S)|Berlin Oranienburger Straße|Berlin Nordbahnhof|Berlin Humboldthain|Berlin Gesundbrunnen(S)|Berlin Bornholmer Str.|Berlin Wollankstraße|Berlin-Schönholz|Berlin-Wilhelmsruh|Berlin-Wittenau (Wilhelmsruher Damm)|Berlin-Waidmannslust|Berlin-Hermsdorf|Berlin-Frohnau|Hohen Neuendorf(b Berlin),8080190,4,Birkenwerder (b Berlin),Brandenburg,Birkenwerder,16547,13.288772,52.688249,2024-07-14 00:45:00,2024-07-14 00:46:00,2024-07-14 00:45:00,2024-07-14 00:46:00,0,0,,on_time,on_time
3028752180398107509-2407101215-3,RE99,Gießen|Wetzlar,8000161,4,Herborn (Dillkr),Hessen,Herborn,35745,8.30814,50.684405,2024-07-10 12:36:00,2024-07-10 12:37:00,2024-07-10 12:36:00,2024-07-10 12:37:00,0,0,,on_time,on_time
8291629119353521671-2407101201-1,57,,8000260,2,Würzburg Hbf,Bayern,Würzburg,97070,9.93578,49.801796,,2024-07-10 12:01:00,,2024-07-10 12:02:00,0,1,,on_time,on_time
1579911222281120613-2407101816-7,20,Schönebeck-Bad Salzelmen|Schönebeck Süd|Schönebeck(Elbe)|Schönebeck-Frohse|Magdeburg Südost|Magdeburg-Salbke,8013485,5,Magdeburg SKET Industriepark,Sachsen-Anhalt,Magdeburg,39104,11.638277,52.097545,2024-07-10 18:32:00,2024-07-10 18:33:00,2024-07-10 18:33:00,2024-07-10 18:34:00,1,1,,on_time,on_time
-1924782670444530793-2407111938-6,6,Frankfurt(Main)Süd|Frankfurt(M)Lokalbahnhof|Frankfurt(M)Ostendstraße|Frankfurt(M)Konstablerwache|Frankfurt(M)Hauptwache,8006691,3,Frankfurt (Main) Taunusanlage,Hessen,Frankfurt am Main,60325,8.668864,50.113565,2024-07-11 19:46:00,2024-07-11 19:47:00,,,0,0,,on_time,on_time
